[
  {
    "id": 10087079525,
    "name": "20/59 Travel Center",
    "brand": "",
    "lat": 33.42692,
    "lon": -86.952564,
    "address": "Jaybird Road, Brighton, AL, 35061",
    "city": "",
    "state": "",
    "zip": "",
    "hgv": false,
    "truck_stop": true
  },
  {
    "id": 1109639627,
    "name": "415 South Truck Stop",
    "brand": "Mobil",
    "lat": 30.443941,
    "lon": -91.244291,
    "address": "910 South Lobdell Highway, Port Allen, LA, 70767",
    "city": "",
    "state": "",
    "zip": "",
    "hgv": false,
    "truck_stop": true
  },
  {
    "id": 9312684717,
    "name": "49er Truck Stop",
    "brand": "",
    "lat": 27.869737,
    "lon": -82.699605,
    "address": "49th Street North, Pinellas Park, FL, 33782",
    "city": "",
    "state": "",
    "zip": "",
    "hgv": false,
    "truck_stop": true
  },
  {
    "id": 236404046,
    "name": "A. M. Best",
    "brand": "",
    "lat": 40.626839,
    "lon": -89.465319,
    "address": "North Morton Avenue, Morton, IL, 61550",
    "city": "",
    "state": "",
    "zip": "",
    "hgv": true,
    "truck_stop": true
  },
  {
    "id": 13128313720,
    "name": "ALLTOWN Fresh",
    "brand": "ALLTOWN Fresh",
    "lat": 43.251892,
    "lon": -73.668762,
    "address": "Lamplighter Acres, 12882",
    "city": "",
    "state": "",
    "zip": "",
    "hgv": true,
    "truck_stop": true
  },
  {
    "id": 829308891,
    "name": "AM Best",
    "brand": "Ambest",
    "lat": 29.93795,
    "lon": -95.373248,
    "address": "North Sam Houston Parkway East, 77032",
    "city": "",
    "state": "",
    "zip": "",
    "hgv": true,
    "truck_stop": true
  },
  {
    "id": 1006891574,
    "name": "AM PM Travel Center",
    "brand": "",
    "lat": 33.329462,
    "lon": -82.170595,
    "address": "Deans Bridge Road, Augusta, GA, 30805",
    "city": "",
    "state": "",
    "zip": "",
    "hgv": false,
    "truck_stop": true
  },
  {
    "id": 12257209085,
    "name": "AMBest",
    "brand": "Ambest",
    "lat": 29.832383,
    "lon": -95.283928,
    "address": "Herschell Street, Houston, TX, 77028",
    "city": "",
    "state": "",
    "zip": "",
    "hgv": false,
    "truck_stop": true
  },
  {
    "id": 239044118,
    "name": "Air-Land",
    "brand": "",
    "lat": 40.602401,
    "lon": -89.487254,
    "address": "Flint Avenue, Morton, IL, 61550",
    "city": "",
    "state": "",
    "zip": "",
    "hgv": true,
    "truck_stop": true
  },
  {
    "id": 220070971,
    "name": "Alamo Truck Stop",
    "brand": "",
    "lat": 39.523477,
    "lon": -119.707957,
    "address": "East Greg Street, Sparks, NV, 89432",
    "city": "",
    "state": "",
    "zip": "",
    "hgv": true,
    "truck_stop": true
  },
  {
    "id": 11492004151,
    "name": "Alltown Fresh",
    "brand": "Alltown Fresh",
    "lat": 42.549478,
    "lon": -71.570694,
    "address": "28 Harvard Road",
    "city": "",
    "state": "",
    "zip": "",
    "hgv": true,
    "truck_stop": true
  },
  {
    "id": 454984556,
    "name": "Alon",
    "brand": "Alon",
    "lat": 32.224434,
    "lon": -98.233864,
    "address": "Senator Robert J. Glasgow Loop, Stephenville, TX, 76402",
    "city": "",
    "state": "",
    "zip": "",
    "hgv": true,
    "truck_stop": true
  },
  {
    "id": 805534119,
    "name": "Alon",
    "brand": "Alon",
    "lat": 32.211893,
    "lon": -98.194866,
    "address": "East South Loop, Stephenville, TX, 76401",
    "city": "",
    "state": "",
    "zip": "",
    "hgv": true,
    "truck_stop": true
  },
  {
    "id": 805537911,
    "name": "Alon",
    "brand": "Alon",
    "lat": 32.22766,
    "lon": -98.191115,
    "address": "East Washington Street, Stephenville, TX, 76401",
    "city": "",
    "state": "",
    "zip": "",
    "hgv": true,
    "truck_stop": true
  },
  {
    "id": 1352351639,
    "name": "Alon",
    "brand": "Alon",
    "lat": 32.206165,
    "lon": -98.234469,
    "address": "West Washington Street, Stephenville, TX, 76402",
    "city": "",
    "state": "",
    "zip": "",
    "hgv": true,
    "truck_stop": true
  },
  {
    "id": 12070595365,
    "name": "AmBest",
    "brand": "Ambest",
    "lat": 35.261129,
    "lon": -90.225784,
    "address": "I-55 Service Road, Marion, AR, 72325",
    "city": "",
    "state": "",
    "zip": "",
    "hgv": false,
    "truck_stop": true
  },
  {
    "id": 12194552417,
    "name": "Ambest",
    "brand": "Ambest",
    "lat": 30.865153,
    "lon": -97.586649,
    "address": "South I-35 Frontage Road, 76537",
    "city": "",
    "state": "",
    "zip": "",
    "hgv": false,
    "truck_stop": true
  },
  {
    "id": 5047006423,
    "name": "Ameristar",
    "brand": "",
    "lat": 46.309042,
    "lon": -119.979563,
    "address": "Allen Road, Sunnyside, WA, 98944",
    "city": "",
    "state": "",
    "zip": "",
    "hgv": true,
    "truck_stop": true
  },
  {
    "id": 361159378,
    "name": "Arlington Travel Center, Exxon",
    "brand": "",
    "lat": 35.260464,
    "lon": -89.664373,
    "address": "Airline Road, Arlington, TN, 38002",
    "city": "",
    "state": "",
    "zip": "",
    "hgv": false,
    "truck_stop": true
  },
  {
    "id": 1722506680,
    "name": "Arrowhead Travel Plaza",
    "brand": "",
    "lat": 45.643336,
    "lon": -118.683522,
    "address": "ArrowHead Travel Plaza Fuel & Parking",
    "city": "",
    "state": "",
    "zip": "",
    "hgv": false,
    "truck_stop": true
  },
  {
    "id": 229591477,
    "name": "BP",
    "brand": "TA Travel Centers",
    "lat": 36.325804,
    "lon": -82.835337,
    "address": "195 Van Hill Road, Baileyton, TN, 37745",
    "city": "",
    "state": "",
    "zip": "",
    "hgv": false,
    "truck_stop": true
  },
  {
    "id": 2973528967,
    "name": "BP",
    "brand": "BP",
    "lat": 36.432088,
    "lon": -77.632708,
    "address": "Julian R Allsbrook Highway, Roanoke Rapids, NC, 27890",
    "city": "",
    "state": "",
    "zip": "",
    "hgv": true,
    "truck_stop": true
  },
  {
    "id": 293945136,
    "name": "BP",
    "brand": "BP",
    "lat": 33.402513,
    "lon": -81.424884,
    "address": "Church Street, Williston, SC, 29853",
    "city": "",
    "state": "",
    "zip": "",
    "hgv": true,
    "truck_stop": true
  },
  {
    "id": 300726033,
    "name": "BP",
    "brand": "BP",
    "lat": 41.589121,
    "lon": -87.217327,
    "address": "Indiana Toll Road, Portage, IN, 46368",
    "city": "",
    "state": "",
    "zip": "",
    "hgv": true,
    "truck_stop": true
  },
  {
    "id": 421456680,
    "name": "BP",
    "brand": "BP",
    "lat": 41.58666,
    "lon": -87.216825,
    "address": "Indiana Toll Road, Portage, IN, 46368",
    "city": "",
    "state": "",
    "zip": "",
    "hgv": true,
    "truck_stop": true
  },
  {
    "id": 1207472713,
    "name": "BP",
    "brand": "BP",
    "lat": 33.399009,
    "lon": -82.006293,
    "address": "Mike Padgett Highway, Augusta, GA, 30906",
    "city": "",
    "state": "",
    "zip": "",
    "hgv": true,
    "truck_stop": true
  },
  {
    "id": 1274253287,
    "name": "BP (Diesel)",
    "brand": "BP",
    "lat": 40.996192,
    "lon": -81.997246,
    "address": "Avon Lake Road, 44214",
    "city": "",
    "state": "",
    "zip": "",
    "hgv": true,
    "truck_stop": true
  },
  {
    "id": 4783738721,
    "name": "BP (Truck Diesel)",
    "brand": "BP",
    "lat": 36.127831,
    "lon": -77.79665,
    "address": "NC 33, 27891",
    "city": "",
    "state": "",
    "zip": "",
    "hgv": false,
    "truck_stop": true
  },
  {
    "id": 1286691029,
    "name": "Bandit Truck Stop",
    "brand": "",
    "lat": 40.58098,
    "lon": -75.707108,
    "address": "Golden Key Road, Weisenberg Township, PA, 19538",
    "city": "",
    "state": "",
    "zip": "",
    "hgv": false,
    "truck_stop": true
  },
  {
    "id": 3081149776,
    "name": "Bear Track Travel Center",
    "brand": "CENEX",
    "lat": 48.44452,
    "lon": -113.217287,
    "address": "US 2, East Glacier Park Village, MT, 59427",
    "city": "",
    "state": "",
    "zip": "",
    "hgv": false,
    "truck_stop": true
  },
  {
    "id": 515074357,
    "name": "Belden Truck Stop",
    "brand": "",
    "lat": 34.309507,
    "lon": -88.784248,
    "address": "McCullough Boulevard, Tupelo, MS, 38826",
    "city": "",
    "state": "",
    "zip": "",
    "hgv": false,
    "truck_stop": true
  },
  {
    "id": 2434557424,
    "name": "Best Truck Stop",
    "brand": "",
    "lat": 35.973865,
    "lon": -119.293082,
    "address": "North Park Drive, 93256",
    "city": "",
    "state": "",
    "zip": "",
    "hgv": false,
    "truck_stop": true
  },
  {
    "id": 5848819185,
    "name": "Better Truck Stop",
    "brand": "",
    "lat": 40.879025,
    "lon": -84.471838,
    "address": "Lincoln Highway, 45863",
    "city": "",
    "state": "",
    "zip": "",
    "hgv": false,
    "truck_stop": true
  },
  {
    "id": 293945135,
    "name": "Bi-Rite/3-Way",
    "brand": "",
    "lat": 33.401863,
    "lon": -81.421131,
    "address": "Main Street, Williston, SC, 29853",
    "city": "",
    "state": "",
    "zip": "",
    "hgv": true,
    "truck_stop": true
  },
  {
    "id": 544641232,
    "name": "Big Chief Travel Center",
    "brand": "",
    "lat": 29.334102,
    "lon": -81.129806,
    "address": "1560 US Highway 1, Ormond Beach, FL, 32174",
    "city": "",
    "state": "",
    "zip": "",
    "hgv": false,
    "truck_stop": true
  },
  {
    "id": 11144752298,
    "name": "Bill's Truck Stop",
    "brand": "",
    "lat": 35.756179,
    "lon": -80.346245,
    "address": "I 85;US 29;US 52;US 70, 27299",
    "city": "",
    "state": "",
    "zip": "",
    "hgv": false,
    "truck_stop": true
  },
  {
    "id": 2434557425,
    "name": "Bob's Truck Stop",
    "brand": "",
    "lat": 35.971788,
    "lon": -119.291495,
    "address": "East Court Avenue, 93256",
    "city": "",
    "state": "",
    "zip": "",
    "hgv": false,
    "truck_stop": true
  },
  {
    "id": 598707714,
    "name": "Boondocks USA Truck Stop",
    "brand": "",
    "lat": 42.471797,
    "lon": -93.565513,
    "address": "220th Street, 50271",
    "city": "",
    "state": "",
    "zip": "",
    "hgv": false,
    "truck_stop": true
  },
  {
    "id": 538688018,
    "name": "Bosselman Energy",
    "brand": "",
    "lat": 39.24014,
    "lon": -99.297362,
    "address": "North Washington Street, Plainville, KS, 67663",
    "city": "",
    "state": "",
    "zip": "",
    "hgv": true,
    "truck_stop": true
  },
  {
    "id": 5272013778,
    "name": "Brooks Travel Plaza",
    "brand": "",
    "lat": 47.818084,
    "lon": -95.998025,
    "address": "State Highway 92, Brooks, MN, 56715",
    "city": "",
    "state": "",
    "zip": "",
    "hgv": false,
    "truck_stop": true
  },
  {
    "id": 10875010036,
    "name": "Buc-ee's",
    "brand": "Buc-ee's",
    "lat": 34.272376,
    "lon": -79.702168,
    "address": "Drs. Bruce and Lee Foundation Boulevard",
    "city": "",
    "state": "",
    "zip": "",
    "hgv": false,
    "truck_stop": true
  },
  {
    "id": 10879214422,
    "name": "Buc-ee's",
    "brand": "Buc-ee's",
    "lat": 30.965159,
    "lon": -95.880717,
    "address": "Interstate 45 South, Madisonville, TX, 77864",
    "city": "",
    "state": "",
    "zip": "",
    "hgv": false,
    "truck_stop": true
  },
  {
    "id": 10879215795,
    "name": "Buc-ee's",
    "brand": "Buc-ee's",
    "lat": 32.584266,
    "lon": -83.739798,
    "address": "Vietnam Veterans Memorial Parkway",
    "city": "",
    "state": "",
    "zip": "",
    "hgv": false,
    "truck_stop": true
  },
  {
    "id": 10879230781,
    "name": "Buc-ee's",
    "brand": "Buc-ee's",
    "lat": 32.323229,
    "lon": -96.606649,
    "address": "South Interstate 45, Ennis, TX, 75119",
    "city": "",
    "state": "",
    "zip": "",
    "hgv": false,
    "truck_stop": true
  },
  {
    "id": 11683818868,
    "name": "Buc-ee's",
    "brand": "Buc-ee's",
    "lat": 29.560332,
    "lon": -95.285551,
    "address": "2541 South Main Street, Pearland, TX, 77581",
    "city": "",
    "state": "",
    "zip": "",
    "hgv": false,
    "truck_stop": true
  },
  {
    "id": 11742116989,
    "name": "Buc-ee's",
    "brand": "Buc-ee's",
    "lat": 40.334064,
    "lon": -104.982861,
    "address": "Johnstown Parkway, Johnstown, CO, 80534",
    "city": "",
    "state": "",
    "zip": "",
    "hgv": false,
    "truck_stop": true
  },
  {
    "id": 12118340042,
    "name": "Buc-ee's",
    "brand": "Buc-ee's",
    "lat": 37.040776,
    "lon": -86.212557,
    "address": "I 65, Smiths Grove, KY, 42171",
    "city": "",
    "state": "",
    "zip": "",
    "hgv": false,
    "truck_stop": true
  },
  {
    "id": 12328394419,
    "name": "Buc-ee's",
    "brand": "Buc-ee's",
    "lat": 29.498609,
    "lon": -95.056601,
    "address": "Louisiana Avenue, League City, TX, 77573",
    "city": "",
    "state": "",
    "zip": "",
    "hgv": false,
    "truck_stop": true
  },
  {
    "id": 12475539418,
    "name": "Buc-ee's",
    "brand": "Buc-ee's",
    "lat": 33.543894,
    "lon": -86.586658,
    "address": "6900 Buc-ee's Boulevard, Leeds, AL, 35094",
    "city": "",
    "state": "",
    "zip": "",
    "hgv": false,
    "truck_stop": true
  },
  {
    "id": 12475554157,
    "name": "Buc-ee's",
    "brand": "Buc-ee's",
    "lat": 28.610055,
    "lon": -96.648823,
    "address": "United States Highway 87, Port Lavaca, TX, 77972",
    "city": "",
    "state": "",
    "zip": "",
    "hgv": false,
    "truck_stop": true
  },
  {
    "id": 13039024042,
    "name": "Buc-ee's",
    "brand": "Buc-ee's",
    "lat": 35.781727,
    "lon": -86.375681,
    "address": "Elam Road, 37127",
    "city": "",
    "state": "",
    "zip": "",
    "hgv": false,
    "truck_stop": true
  },
  {
    "id": 13122077747,
    "name": "Buc-ee's",
    "brand": "Buc-ee's",
    "lat": 31.307052,
    "lon": -81.475766,
    "address": "GA 99, 31325",
    "city": "",
    "state": "",
    "zip": "",
    "hgv": false,
    "truck_stop": true
  },
  {
    "id": 203933135,
    "name": "Buc-ee's",
    "brand": "Buc-ee's",
    "lat": 29.585877,
    "lon": -96.331878,
    "address": "Boothe Drive, Eagle Lake, TX, 77434",
    "city": "",
    "state": "",
    "zip": "",
    "hgv": false,
    "truck_stop": true
  },
  {
    "id": 241040461,
    "name": "Buc-ee's",
    "brand": "Buc-ee's",
    "lat": 29.980398,
    "lon": -95.718383,
    "address": "Northwest Freeway Frontage Road, Houston, TX, 77433",
    "city": "",
    "state": "",
    "zip": "",
    "hgv": false,
    "truck_stop": true
  },
  {
    "id": 368086075,
    "name": "Buc-ee's",
    "brand": "Buc-ee's",
    "lat": 29.580488,
    "lon": -95.391886,
    "address": "11151 Shadow Creek Parkway",
    "city": "",
    "state": "",
    "zip": "77584",
    "hgv": false,
    "truck_stop": true
  },
  {
    "id": 521377878,
    "name": "Buc-ee's",
    "brand": "Buc-ee's",
    "lat": 28.981201,
    "lon": -95.336732,
    "address": "East State Highway 332, Freeport, TX, 77541",
    "city": "",
    "state": "",
    "zip": "",
    "hgv": false,
    "truck_stop": true
  },
  {
    "id": 612406895,
    "name": "Buc-ee's",
    "brand": "Buc-ee's",
    "lat": 29.040889,
    "lon": -95.413292,
    "address": "Oyster Creek Drive, Lake Jackson, TX, 77566",
    "city": "",
    "state": "",
    "zip": "",
    "hgv": false,
    "truck_stop": true
  },
  {
    "id": 669738574,
    "name": "Buc-ee's",
    "brand": "Buc-ee's",
    "lat": 29.800808,
    "lon": -94.999908,
    "address": "4080 East Freeway, Baytown, TX, 77521",
    "city": "",
    "state": "",
    "zip": "",
    "hgv": false,
    "truck_stop": true
  },
  {
    "id": 781658198,
    "name": "Buc-ee's",
    "brand": "Buc-ee's",
    "lat": 30.179696,
    "lon": -96.913434,
    "address": "County Road 133, Giddings, TX, 78942",
    "city": "",
    "state": "",
    "zip": "",
    "hgv": false,
    "truck_stop": true
  },
  {
    "id": 984502763,
    "name": "Buc-ee's",
    "brand": "Buc-ee's",
    "lat": 33.271287,
    "lon": -96.592347,
    "address": "Bucees Boulevard, Melissa, TX, 75454",
    "city": "",
    "state": "",
    "zip": "",
    "hgv": false,
    "truck_stop": true
  },
  {
    "id": 1017278275,
    "name": "Buc-ee's",
    "brand": "Buc-ee's",
    "lat": 29.063851,
    "lon": -95.427298,
    "address": "Old Angleton Road, 77566",
    "city": "",
    "state": "",
    "zip": "",
    "hgv": false,
    "truck_stop": true
  },
  {
    "id": 1017469494,
    "name": "Buc-ee's",
    "brand": "Buc-ee's",
    "lat": 28.969476,
    "lon": -95.370222,
    "address": "North Brazosport Boulevard, Freeport, TX, 77541",
    "city": "",
    "state": "",
    "zip": "",
    "hgv": false,
    "truck_stop": true
  },
  {
    "id": 1117246165,
    "name": "Buc-ee's",
    "brand": "Buc-ee's",
    "lat": 35.981393,
    "lon": -83.605272,
    "address": "170 Buc-ee's Boulevard",
    "city": "",
    "state": "",
    "zip": "37764",
    "hgv": false,
    "truck_stop": true
  },
  {
    "id": 1170356062,
    "name": "Buc-ee's",
    "brand": "Buc-ee's",
    "lat": 37.673407,
    "lon": -84.308757,
    "address": "Republic Way, Richmond, KY",
    "city": "",
    "state": "",
    "zip": "",
    "hgv": false,
    "truck_stop": true
  },
  {
    "id": 1204639289,
    "name": "Buc-ee's",
    "brand": "Buc-ee's",
    "lat": 29.430081,
    "lon": -95.226349,
    "address": "Clifford Street, Alvin, TX, 77511",
    "city": "",
    "state": "",
    "zip": "",
    "hgv": false,
    "truck_stop": true
  },
  {
    "id": 1220140281,
    "name": "Buc-ee's",
    "brand": "Buc-ee's",
    "lat": 29.173012,
    "lon": -95.433515,
    "address": "West Wilkins Street, Angleton, TX, 77515",
    "city": "",
    "state": "",
    "zip": "",
    "hgv": false,
    "truck_stop": true
  },
  {
    "id": 1232774100,
    "name": "Buc-ee's",
    "brand": "Buc-ee's",
    "lat": 29.184829,
    "lon": -95.408917,
    "address": "Hospital Drive, Angleton, TX, 77515",
    "city": "",
    "state": "",
    "zip": "",
    "hgv": false,
    "truck_stop": true
  },
  {
    "id": 1289039595,
    "name": "Buc-ee's",
    "brand": "Buc-ee's",
    "lat": 32.551515,
    "lon": -85.526315,
    "address": "Buc-ee's Boulevard, Auburn, AL, 36803",
    "city": "",
    "state": "",
    "zip": "",
    "hgv": false,
    "truck_stop": true
  },
  {
    "id": 1290299363,
    "name": "Buc-ee's",
    "brand": "Buc-ee's",
    "lat": 37.252466,
    "lon": -93.180829,
    "address": "Bucee's Boulevard, Springfield, MO",
    "city": "",
    "state": "",
    "zip": "",
    "hgv": false,
    "truck_stop": true
  },
  {
    "id": 1332611873,
    "name": "Buc-ee's",
    "brand": "Buc-ee's",
    "lat": 29.055026,
    "lon": -95.571879,
    "address": "West Pleasant Street, Brazoria, TX, 77422",
    "city": "",
    "state": "",
    "zip": "",
    "hgv": false,
    "truck_stop": true
  },
  {
    "id": 1436720681,
    "name": "Buc-ee's",
    "brand": "Buc-ee's",
    "lat": 38.354535,
    "lon": -78.925738,
    "address": "Buc-ees Boulevard, 22841",
    "city": "",
    "state": "",
    "zip": "",
    "hgv": false,
    "truck_stop": true
  },
  {
    "id": 12597235,
    "name": "Buc-ee's",
    "brand": "Buc-ee's",
    "lat": 29.429022,
    "lon": -95.062806,
    "address": "Lago Mar Boulevard, Texas City, TX, 77539",
    "city": "",
    "state": "",
    "zip": "",
    "hgv": false,
    "truck_stop": true
  },
  {
    "id": 16228563,
    "name": "Buc-ee's",
    "brand": "Buc-ee's",
    "lat": 29.163508,
    "lon": -95.45554,
    "address": "Jimmy Phillips Boulevard, Angleton, TX, 77515",
    "city": "",
    "state": "",
    "zip": "",
    "hgv": false,
    "truck_stop": true
  },
  {
    "id": 18270944,
    "name": "Buc-ee's",
    "brand": "Buc-ee's",
    "lat": 34.728794,
    "lon": -86.933103,
    "address": "Lindsay Lane, Athens, AL, 35671",
    "city": "",
    "state": "",
    "zip": "",
    "hgv": false,
    "truck_stop": true
  },
  {
    "id": 18270954,
    "name": "Buc-ee's",
    "brand": "Buc-ee's",
    "lat": 30.63493,
    "lon": -87.676504,
    "address": "County Road 68, Loxley, AL",
    "city": "",
    "state": "",
    "zip": "",
    "hgv": false,
    "truck_stop": true
  },
  {
    "id": 18270968,
    "name": "Buc-ee's",
    "brand": "Buc-ee's",
    "lat": 29.223403,
    "lon": -81.101461,
    "address": "Gateway North Drive, Daytona Beach, FL, 32175",
    "city": "",
    "state": "",
    "zip": "",
    "hgv": false,
    "truck_stop": true
  },
  {
    "id": 18271017,
    "name": "Buc-ee's",
    "brand": "Buc-ee's",
    "lat": 29.325008,
    "lon": -96.12334,
    "address": "10484 US Highway 59, Wharton, TX, 77488",
    "city": "",
    "state": "",
    "zip": "",
    "hgv": false,
    "truck_stop": true
  },
  {
    "id": 18271032,
    "name": "Buc-ee's",
    "brand": "Buc-ee's",
    "lat": 29.650938,
    "lon": -97.593136,
    "address": "Interstate 10 Frontage Road, Luling, TX, 78658",
    "city": "",
    "state": "",
    "zip": "",
    "hgv": false,
    "truck_stop": true
  },
  {
    "id": 18271053,
    "name": "Buc-ee's",
    "brand": "Buc-ee's",
    "lat": 33.179589,
    "lon": -97.101983,
    "address": "Buc-ee's Boulevard, Denton, TX, 76205",
    "city": "",
    "state": "",
    "zip": "",
    "hgv": false,
    "truck_stop": true
  },
  {
    "id": 18271390,
    "name": "Buc-ee's",
    "brand": "Buc-ee's",
    "lat": 30.107349,
    "lon": -97.306169,
    "address": "1700 State Highway 71 East, Bastrop, TX, 78602",
    "city": "",
    "state": "",
    "zip": "",
    "hgv": false,
    "truck_stop": true
  },
  {
    "id": 18271394,
    "name": "Buc-ee's",
    "brand": "Buc-ee's",
    "lat": 35.980639,
    "lon": -85.015498,
    "address": "Tabor Drive, Crossville, TN, 37855",
    "city": "",
    "state": "",
    "zip": "",
    "hgv": false,
    "truck_stop": true
  },
  {
    "id": 18271404,
    "name": "Buc-ee's",
    "brand": "Buc-ee's",
    "lat": 29.778153,
    "lon": -95.847253,
    "address": "Katy Freeway Frontage Road, Katy, TX, 77494",
    "city": "",
    "state": "",
    "zip": "",
    "hgv": false,
    "truck_stop": true
  },
  {
    "id": 18505169,
    "name": "Buc-ee's",
    "brand": "Buc-ee's",
    "lat": 32.979916,
    "lon": -96.295353,
    "address": "East Interstate 30, Royse City, TX, 75189",
    "city": "",
    "state": "",
    "zip": "",
    "hgv": false,
    "truck_stop": true
  },
  {
    "id": 18688855,
    "name": "Buc-ee's",
    "brand": "Buc-ee's",
    "lat": 30.071844,
    "lon": -95.932192,
    "address": "US Highway 290, 77874",
    "city": "",
    "state": "",
    "zip": "",
    "hgv": false,
    "truck_stop": true
  },
  {
    "id": 19320407,
    "name": "Buc-ee's",
    "brand": "Buc-ee's",
    "lat": 29.98382,
    "lon": -81.463828,
    "address": "200 World Commerce Parkway, Saint Augustine, FL, 32117",
    "city": "",
    "state": "",
    "zip": "",
    "hgv": false,
    "truck_stop": true
  },
  {
    "id": 19411451,
    "name": "Buc-ee's",
    "brand": "Buc-ee's",
    "lat": 33.024519,
    "lon": -97.277705,
    "address": "15901 North Freeway, Fort Worth, TX, 76177",
    "city": "",
    "state": "",
    "zip": "",
    "hgv": false,
    "truck_stop": true
  },
  {
    "id": 13194835401,
    "name": "Buc-ees",
    "brand": "Buc-ee's",
    "lat": 30.405072,
    "lon": -89.25,
    "address": "8245 Firetower Road",
    "city": "",
    "state": "",
    "zip": "39571",
    "hgv": false,
    "truck_stop": true
  },
  {
    "id": 423071893,
    "name": "CBH Co-Op Belle Fourche Travel Center",
    "brand": "",
    "lat": 44.682001,
    "lon": -103.853958,
    "address": "US Highway 212, Belle Fourche, SD, 57717",
    "city": "",
    "state": "",
    "zip": "",
    "hgv": false,
    "truck_stop": true
  },
  {
    "id": 1080638611,
    "name": "CEFCO",
    "brand": "CEFCO",
    "lat": 33.955133,
    "lon": -98.604396,
    "address": "Northwest Freeway, Wichita Falls, TX",
    "city": "",
    "state": "",
    "zip": "",
    "hgv": true,
    "truck_stop": true
  },
  {
    "id": 1117063968,
    "name": "CEFCO",
    "brand": "CEFCO",
    "lat": 31.138631,
    "lon": -97.33203,
    "address": "Northwest H K Dodgen Loop, Temple, TX, 76504",
    "city": "",
    "state": "",
    "zip": "",
    "hgv": true,
    "truck_stop": true
  },
  {
    "id": 1173817241,
    "name": "CEFCO",
    "brand": "CEFCO",
    "lat": 30.714284,
    "lon": -96.855264,
    "address": "US 79;US 190;TX 36, Milano, TX, 76556",
    "city": "",
    "state": "",
    "zip": "",
    "hgv": true,
    "truck_stop": true
  },
  {
    "id": 4151896423,
    "name": "CFN",
    "brand": "",
    "lat": 46.607128,
    "lon": -122.905707,
    "address": "Rush Road, Napavine, WA, 98565",
    "city": "",
    "state": "",
    "zip": "",
    "hgv": true,
    "truck_stop": true
  },
  {
    "id": 652550647,
    "name": "Casey's",
    "brand": "",
    "lat": 37.491692,
    "lon": -94.297639,
    "address": "Southeast 1st Lane, Lamar Heights, MO, 64759",
    "city": "",
    "state": "",
    "zip": "",
    "hgv": true,
    "truck_stop": true
  },
  {
    "id": 639362070,
    "name": "Casey's General Store",
    "brand": "Casey's General Store",
    "lat": 42.451424,
    "lon": -91.888681,
    "address": "3rd Avenue Southeast, Independence, IA, 50644",
    "city": "",
    "state": "",
    "zip": "",
    "hgv": true,
    "truck_stop": true
  },
  {
    "id": 744225584,
    "name": "Casey's General Store",
    "brand": "Casey's General Store",
    "lat": 41.888214,
    "lon": -91.675008,
    "address": "Capitol Drive Southwest, Cedar Rapids, IA, 52404",
    "city": "",
    "state": "",
    "zip": "",
    "hgv": true,
    "truck_stop": true
  },
  {
    "id": 1135573374,
    "name": "Casey's General Store",
    "brand": "Casey's General Store",
    "lat": 42.173369,
    "lon": -91.778039,
    "address": "Grain Lane, Center Point, IA, 52213",
    "city": "",
    "state": "",
    "zip": "",
    "hgv": true,
    "truck_stop": true
  },
  {
    "id": 1319258092,
    "name": "Casey's General Store",
    "brand": "Casey's General Store",
    "lat": 35.420988,
    "lon": -96.29837,
    "address": "East Coplin Street, Okemah, OK, 74859",
    "city": "",
    "state": "",
    "zip": "",
    "hgv": true,
    "truck_stop": true
  },
  {
    "id": 575380138,
    "name": "Cee Gee\u2019s Truck Stop",
    "brand": "",
    "lat": 46.392374,
    "lon": -122.90604,
    "address": "Rogers Road, 98593",
    "city": "",
    "state": "",
    "zip": "",
    "hgv": false,
    "truck_stop": true
  },
  {
    "id": 2136763201,
    "name": "Cenex",
    "brand": "Love's Travel Stops",
    "lat": 37.082894,
    "lon": -97.039852,
    "address": "Virginia Avenue, Arkansas City, KS, 67005",
    "city": "",
    "state": "",
    "zip": "",
    "hgv": false,
    "truck_stop": true
  },
  {
    "id": 1439016891,
    "name": "Cenex",
    "brand": "Cenex",
    "lat": 39.357728,
    "lon": -100.44149,
    "address": "Oak Avenue, Hoxie, KS, 67740",
    "city": "",
    "state": "",
    "zip": "",
    "hgv": true,
    "truck_stop": true
  },
  {
    "id": 1458456159,
    "name": "Cenex",
    "brand": "Cenex",
    "lat": 39.828636,
    "lon": -100.53379,
    "address": "US 83, Oberlin, KS, 67749",
    "city": "",
    "state": "",
    "zip": "",
    "hgv": true,
    "truck_stop": true
  },
  {
    "id": 10742404695,
    "name": "Cenex",
    "brand": "Cenex",
    "lat": 41.705052,
    "lon": -94.925937,
    "address": "Highway 71, Audubon, IA, 50025",
    "city": "",
    "state": "",
    "zip": "",
    "hgv": true,
    "truck_stop": true
  },
  {
    "id": 478210471,
    "name": "Cenex",
    "brand": "",
    "lat": 37.981502,
    "lon": -101.754726,
    "address": "Avenue A, Syracuse, KS, 67878",
    "city": "",
    "state": "",
    "zip": "",
    "hgv": true,
    "truck_stop": true
  },
  {
    "id": 1432654927,
    "name": "Cenex",
    "brand": "Cenex",
    "lat": 47.825708,
    "lon": -110.669469,
    "address": "MVC No-Lead and Off-Road Diesel Fuel Pumps, Fort Benton, MT, 59442",
    "city": "",
    "state": "",
    "zip": "",
    "hgv": true,
    "truck_stop": true
  },
  {
    "id": 2350412303,
    "name": "Cenex (Truck-Diesel)",
    "brand": "Cenex",
    "lat": 44.169152,
    "lon": -92.165224,
    "address": "4th Avenue Northeast, Plainview, MN, 55964",
    "city": "",
    "state": "",
    "zip": "",
    "hgv": false,
    "truck_stop": true
  },
  {
    "id": 3117294472,
    "name": "Cenex (trucks)",
    "brand": "Cenex",
    "lat": 42.096077,
    "lon": -102.897332,
    "address": "West 3rd Street, Alliance, NE, 69301",
    "city": "",
    "state": "",
    "zip": "",
    "hgv": false,
    "truck_stop": true
  },
  {
    "id": 1370086886,
    "name": "Chad A. Snead Truck Stop",
    "brand": "Exxon",
    "lat": 38.24091,
    "lon": -81.559435,
    "address": "Maccorkle Avenue, Marmet, WV, 25315",
    "city": "",
    "state": "",
    "zip": "",
    "hgv": false,
    "truck_stop": true
  },
  {
    "id": 239829489,
    "name": "Cherokee Travel Plaza",
    "brand": "Valero",
    "lat": 35.406783,
    "lon": -94.530374,
    "address": "Paw Paw Road, Roland, OK, 74954",
    "city": "",
    "state": "",
    "zip": "",
    "hgv": true,
    "truck_stop": true
  },
  {
    "id": 239829490,
    "name": "Cherokee Travel Plaza",
    "brand": "Valero",
    "lat": 35.406295,
    "lon": -94.530207,
    "address": "Cherokee Boulevard, Roland, OK, 74954",
    "city": "",
    "state": "",
    "zip": "",
    "hgv": false,
    "truck_stop": true
  },
  {
    "id": 676820171,
    "name": "Chevron",
    "brand": "Chevron",
    "lat": 29.532487,
    "lon": -95.857975,
    "address": "Southwest Freeway Frontage Road, Rosenberg, TX, 77471",
    "city": "",
    "state": "",
    "zip": "",
    "hgv": true,
    "truck_stop": true
  },
  {
    "id": 988470326,
    "name": "Chevron",
    "brand": "Chevron",
    "lat": 29.859224,
    "lon": -95.400669,
    "address": "West Parker Road, Houston, TX, 77076",
    "city": "",
    "state": "",
    "zip": "",
    "hgv": true,
    "truck_stop": true
  },
  {
    "id": 13115573501,
    "name": "Chimney Rock Travel Center",
    "brand": "",
    "lat": 41.532858,
    "lon": -120.465599,
    "address": "Route 395",
    "city": "",
    "state": "",
    "zip": "",
    "hgv": false,
    "truck_stop": true
  },
  {
    "id": 1111226861,
    "name": "Choctaw",
    "brand": "",
    "lat": 33.938108,
    "lon": -95.525243,
    "address": "East 2120 Road, Grant, OK, 74738",
    "city": "",
    "state": "",
    "zip": "",
    "hgv": true,
    "truck_stop": true
  },
  {
    "id": 18800939,
    "name": "Choctaw Travel Plaza",
    "brand": "",
    "lat": 33.952774,
    "lon": -96.41848,
    "address": "US 69;US 75, Durant, OK, 74730",
    "city": "",
    "state": "",
    "zip": "",
    "hgv": true,
    "truck_stop": true
  },
  {
    "id": 404089365,
    "name": "Choctaw Travel Plaza",
    "brand": "",
    "lat": 34.912658,
    "lon": -95.322334,
    "address": "West Main Street, Wilburton, OK, 74578",
    "city": "",
    "state": "",
    "zip": "",
    "hgv": false,
    "truck_stop": true
  },
  {
    "id": 971414475,
    "name": "Choctaw Travel Plaza",
    "brand": "",
    "lat": 33.95386,
    "lon": -96.415769,
    "address": "Choctaw Road, Durant, OK, 74730",
    "city": "",
    "state": "",
    "zip": "",
    "hgv": false,
    "truck_stop": true
  },
  {
    "id": 988471000,
    "name": "Choctaw Travel Plaza",
    "brand": "",
    "lat": 33.953112,
    "lon": -96.418091,
    "address": "4301 Choctaw Road, Calera, OK, 74730",
    "city": "",
    "state": "",
    "zip": "",
    "hgv": false,
    "truck_stop": true
  },
  {
    "id": 1454580521,
    "name": "Choctaw Travel Plaza",
    "brand": "",
    "lat": 34.75383,
    "lon": -95.079231,
    "address": "OK 1;OK 63",
    "city": "",
    "state": "",
    "zip": "",
    "hgv": false,
    "truck_stop": true
  },
  {
    "id": 13000079,
    "name": "Choctaw Travel Plaza",
    "brand": "",
    "lat": 34.005047,
    "lon": -94.740145,
    "address": "US 70;US 259;OK 3, Broken Bow, OK",
    "city": "",
    "state": "",
    "zip": "",
    "hgv": false,
    "truck_stop": true
  },
  {
    "id": 13069330,
    "name": "Choctaw Travel Plaza East",
    "brand": "",
    "lat": 33.953669,
    "lon": -96.415626,
    "address": "Choctaw Road, Durant, OK, 74730",
    "city": "",
    "state": "",
    "zip": "",
    "hgv": false,
    "truck_stop": true
  },
  {
    "id": 12361099471,
    "name": "Circle K",
    "brand": "Pilot Flying J",
    "lat": 43.693661,
    "lon": -98.014827,
    "address": "South Burr Street, Mitchell, SD, 57301",
    "city": "",
    "state": "",
    "zip": "",
    "hgv": false,
    "truck_stop": true
  },
  {
    "id": 2442044390,
    "name": "Circle K",
    "brand": "",
    "lat": 35.270009,
    "lon": -78.61486,
    "address": "Long Branch Road, 28334",
    "city": "",
    "state": "",
    "zip": "",
    "hgv": true,
    "truck_stop": true
  },
  {
    "id": 10076198421,
    "name": "Circle K",
    "brand": "Circle K",
    "lat": 30.629885,
    "lon": -81.560525,
    "address": "St Francis Way, 32097",
    "city": "",
    "state": "",
    "zip": "",
    "hgv": true,
    "truck_stop": true
  },
  {
    "id": 12159238408,
    "name": "Circle K",
    "brand": "Circle K",
    "lat": 41.497765,
    "lon": -83.7212,
    "address": "South Street, Waterville, OH, 43566",
    "city": "",
    "state": "",
    "zip": "",
    "hgv": true,
    "truck_stop": true
  },
  {
    "id": 12361085782,
    "name": "Circle K",
    "brand": "Circle K",
    "lat": 32.743525,
    "lon": -83.726383,
    "address": "Hartley Bridge Road, Macon, GA, 31216",
    "city": "",
    "state": "",
    "zip": "",
    "hgv": true,
    "truck_stop": true
  },
  {
    "id": 12361462526,
    "name": "Circle K",
    "brand": "Circle K",
    "lat": 32.657083,
    "lon": -83.747478,
    "address": "GA 49;GA 540, Byron, GA, 31008",
    "city": "",
    "state": "",
    "zip": "",
    "hgv": true,
    "truck_stop": true
  },
  {
    "id": 1200619086,
    "name": "Circle K",
    "brand": "",
    "lat": 34.93513,
    "lon": -78.921909,
    "address": "Chicken Foot Road, Hope Mills, NC, 28348",
    "city": "",
    "state": "",
    "zip": "",
    "hgv": true,
    "truck_stop": true
  },
  {
    "id": 596614244,
    "name": "Citgo",
    "brand": "Citgo",
    "lat": 30.869865,
    "lon": -83.999552,
    "address": "Old Albany Road, 31792",
    "city": "",
    "state": "",
    "zip": "",
    "hgv": true,
    "truck_stop": true
  },
  {
    "id": 303558606,
    "name": "Clarence's Truck Stop",
    "brand": "",
    "lat": 37.092587,
    "lon": -102.578603,
    "address": "US 287;US 385",
    "city": "",
    "state": "",
    "zip": "",
    "hgv": false,
    "truck_stop": true
  },
  {
    "id": 2392773511,
    "name": "Cloverdale Travel Plaza",
    "brand": "",
    "lat": 39.567142,
    "lon": -86.632444,
    "address": "1032 North Main Street",
    "city": "",
    "state": "",
    "zip": "",
    "hgv": false,
    "truck_stop": true
  },
  {
    "id": 722980319,
    "name": "Coffee Cup Travel Plaza",
    "brand": "",
    "lat": 45.310863,
    "lon": -97.046442,
    "address": "US Highway 12, 57266",
    "city": "",
    "state": "",
    "zip": "",
    "hgv": true,
    "truck_stop": true
  },
  {
    "id": 2535915658,
    "name": "Conoco",
    "brand": "Pilot Flying J",
    "lat": 41.09115,
    "lon": -96.254512,
    "address": "Cars & RVs, Gretna, NE, 68028",
    "city": "",
    "state": "",
    "zip": "",
    "hgv": false,
    "truck_stop": true
  },
  {
    "id": 2535915662,
    "name": "Conoco",
    "brand": "Pilot Flying J",
    "lat": 41.091789,
    "lon": -96.254153,
    "address": "Cars & RVs, Gretna, NE, 68028",
    "city": "",
    "state": "",
    "zip": "",
    "hgv": false,
    "truck_stop": true
  },
  {
    "id": 1585353174,
    "name": "Conoco",
    "brand": "",
    "lat": 36.939625,
    "lon": -97.343764,
    "address": "US 177, 74632",
    "city": "",
    "state": "",
    "zip": "",
    "hgv": true,
    "truck_stop": true
  },
  {
    "id": 6273209052,
    "name": "Conoco",
    "brand": "Conoco",
    "lat": 29.823598,
    "lon": -94.896896,
    "address": "Langston Drive, Mont Belvieu, TX, 75523",
    "city": "",
    "state": "",
    "zip": "",
    "hgv": true,
    "truck_stop": true
  },
  {
    "id": 260635889,
    "name": "Conoco",
    "brand": "Conoco",
    "lat": 36.116604,
    "lon": -97.336531,
    "address": "Peach Road, Orlando, OK",
    "city": "",
    "state": "",
    "zip": "",
    "hgv": true,
    "truck_stop": true
  },
  {
    "id": 451824949,
    "name": "Conoco",
    "brand": "Conoco",
    "lat": 46.005396,
    "lon": -112.611769,
    "address": "Grizzly Trail, Butte, MT",
    "city": "",
    "state": "",
    "zip": "",
    "hgv": true,
    "truck_stop": true
  },
  {
    "id": 1462489569,
    "name": "Conoco",
    "brand": "Conoco",
    "lat": 47.826201,
    "lon": -110.667118,
    "address": "Saint Charles Street, Fort Benton, MT, 59442",
    "city": "",
    "state": "",
    "zip": "",
    "hgv": true,
    "truck_stop": true
  },
  {
    "id": 2711741454,
    "name": "Conoco (Trucks)",
    "brand": "Conoco",
    "lat": 37.130621,
    "lon": -93.458014,
    "address": "East Hamilton Street, Republic, MO, 65738",
    "city": "",
    "state": "",
    "zip": "",
    "hgv": false,
    "truck_stop": true
  },
  {
    "id": 2751213410,
    "name": "Conoco (Trucks)",
    "brand": "Conoco",
    "lat": 37.254413,
    "lon": -93.265554,
    "address": "East McClernon Street, Springfield, MO, 65898",
    "city": "",
    "state": "",
    "zip": "",
    "hgv": false,
    "truck_stop": true
  },
  {
    "id": 4551377691,
    "name": "Crater Lake Junction Travel Center",
    "brand": "",
    "lat": 42.534521,
    "lon": -121.88446,
    "address": "The Dalles-California Highway, Chiloquin, OR, 97624",
    "city": "",
    "state": "",
    "zip": "",
    "hgv": false,
    "truck_stop": true
  },
  {
    "id": 1415691610,
    "name": "Creek Travel Plaza",
    "brand": "",
    "lat": 31.087,
    "lon": -87.538132,
    "address": "Jack Springs Road, 36502",
    "city": "",
    "state": "",
    "zip": "",
    "hgv": false,
    "truck_stop": true
  },
  {
    "id": 3669472746,
    "name": "Crossroads Truck Stop",
    "brand": "Shell",
    "lat": 45.917917,
    "lon": -119.324435,
    "address": "6th Street, Umatilla, OR, 97882",
    "city": "",
    "state": "",
    "zip": "",
    "hgv": false,
    "truck_stop": true
  },
  {
    "id": 1026751211,
    "name": "Dad's Travel Center",
    "brand": "Sinclair",
    "lat": 43.5294,
    "lon": -111.984923,
    "address": "North Yellowstone Highway, 83401",
    "city": "",
    "state": "",
    "zip": "",
    "hgv": false,
    "truck_stop": true
  },
  {
    "id": 10762068776,
    "name": "Delta Express",
    "brand": "TA Travel Centers",
    "lat": 33.476211,
    "lon": -86.119193,
    "address": "AL 77, Talladega, AL, 36160",
    "city": "",
    "state": "",
    "zip": "",
    "hgv": false,
    "truck_stop": true
  },
  {
    "id": 988276095,
    "name": "Delta Express",
    "brand": "TA Travel Centers",
    "lat": 34.752671,
    "lon": -84.769071,
    "address": "US 76;US 411;GA 61, Chatsworth, GA, 30705",
    "city": "",
    "state": "",
    "zip": "",
    "hgv": false,
    "truck_stop": true
  },
  {
    "id": 2201966200,
    "name": "Dew Truck Stop",
    "brand": "Citgo",
    "lat": 31.596386,
    "lon": -96.148571,
    "address": "State Highway 179",
    "city": "",
    "state": "",
    "zip": "",
    "hgv": false,
    "truck_stop": true
  },
  {
    "id": 1458456163,
    "name": "Diamand Shamrock",
    "brand": "",
    "lat": 39.838986,
    "lon": -99.88817,
    "address": "East Holme Street, Norton, KS, 67654",
    "city": "",
    "state": "",
    "zip": "",
    "hgv": true,
    "truck_stop": true
  },
  {
    "id": 995453955,
    "name": "Domino",
    "brand": "Domino",
    "lat": 36.432629,
    "lon": -99.42807,
    "address": "Oklahoma Avenue, Woodward, OK, 73801",
    "city": "",
    "state": "",
    "zip": "",
    "hgv": true,
    "truck_stop": true
  },
  {
    "id": 2275995893,
    "name": "Donna's Truck Stop",
    "brand": "Gull",
    "lat": 48.099808,
    "lon": -122.188553,
    "address": "116th Street Northeast, 98271",
    "city": "",
    "state": "",
    "zip": "",
    "hgv": false,
    "truck_stop": true
  },
  {
    "id": 722747374,
    "name": "Doswell / Roady's Truck Stop",
    "brand": "",
    "lat": 37.847332,
    "lon": -77.449766,
    "address": "10218 Kings Dominion Boulevard",
    "city": "",
    "state": "",
    "zip": "23047",
    "hgv": false,
    "truck_stop": true
  },
  {
    "id": 571538027,
    "name": "EZ",
    "brand": "",
    "lat": 44.55518,
    "lon": -123.057343,
    "address": "Highway 34 Southeast",
    "city": "",
    "state": "",
    "zip": "",
    "hgv": true,
    "truck_stop": true
  },
  {
    "id": 2464030121,
    "name": "Energy Express Travel Center",
    "brand": "",
    "lat": 38.67326,
    "lon": -90.2026,
    "address": "North 2nd Street, Saint Louis, MO, 63147",
    "city": "",
    "state": "",
    "zip": "",
    "hgv": false,
    "truck_stop": true
  },
  {
    "id": 12106358567,
    "name": "Express Travel Center",
    "brand": "",
    "lat": 33.480875,
    "lon": -80.883224,
    "address": "Old Edisto Drive, 29115",
    "city": "",
    "state": "",
    "zip": "",
    "hgv": false,
    "truck_stop": true
  },
  {
    "id": 449311908,
    "name": "Exxon",
    "brand": "Pilot Flying J",
    "lat": 47.189967,
    "lon": -114.886804,
    "address": "Diamond Road, Superior, MT, 59872",
    "city": "",
    "state": "",
    "zip": "",
    "hgv": false,
    "truck_stop": true
  },
  {
    "id": 12079620863,
    "name": "Exxon",
    "brand": "Exxon",
    "lat": 30.042042,
    "lon": -94.133082,
    "address": "Fannett Road, Beaumont, TX, 77705",
    "city": "",
    "state": "",
    "zip": "",
    "hgv": true,
    "truck_stop": true
  },
  {
    "id": 12461898072,
    "name": "Exxon",
    "brand": "Exxon",
    "lat": 35.273703,
    "lon": -80.885136,
    "address": "Brookshire Boulevard, Charlotte, NC, 28208",
    "city": "",
    "state": "",
    "zip": "",
    "hgv": true,
    "truck_stop": true
  },
  {
    "id": 525458143,
    "name": "Exxon",
    "brand": "",
    "lat": 40.59077,
    "lon": -76.407432,
    "address": "Potts Road, Tremont Township, PA, 17981",
    "city": "",
    "state": "",
    "zip": "",
    "hgv": true,
    "truck_stop": true
  },
  {
    "id": 613161713,
    "name": "Exxon",
    "brand": "Exxon",
    "lat": 36.664958,
    "lon": -77.553762,
    "address": "State Route 690, 23847",
    "city": "",
    "state": "",
    "zip": "",
    "hgv": true,
    "truck_stop": true
  },
  {
    "id": 837926086,
    "name": "Exxon",
    "brand": "Exxon",
    "lat": 46.874622,
    "lon": -113.886552,
    "address": "Montana Highway 200, 59851",
    "city": "",
    "state": "",
    "zip": "",
    "hgv": true,
    "truck_stop": true
  },
  {
    "id": 837926089,
    "name": "Exxon",
    "brand": "Exxon",
    "lat": 46.874712,
    "lon": -113.886504,
    "address": "Montana Highway 200, 59851",
    "city": "",
    "state": "",
    "zip": "",
    "hgv": true,
    "truck_stop": true
  },
  {
    "id": 1075813609,
    "name": "Exxon",
    "brand": "Exxon",
    "lat": 41.160089,
    "lon": -104.521449,
    "address": "I-80 Service Road",
    "city": "",
    "state": "",
    "zip": "",
    "hgv": true,
    "truck_stop": true
  },
  {
    "id": 1184884585,
    "name": "Exxon",
    "brand": "Exxon",
    "lat": 34.296075,
    "lon": -88.968776,
    "address": "Bridgman Loop, 38863",
    "city": "",
    "state": "",
    "zip": "",
    "hgv": true,
    "truck_stop": true
  },
  {
    "id": 1354530257,
    "name": "Exxon",
    "brand": "Exxon",
    "lat": 40.346476,
    "lon": -76.121688,
    "address": "Old West Penn Avenue, Heidelberg Township, PA, 19565",
    "city": "",
    "state": "",
    "zip": "",
    "hgv": true,
    "truck_stop": true
  },
  {
    "id": 1368028005,
    "name": "Exxon",
    "brand": "Exxon",
    "lat": 46.591099,
    "lon": -111.933602,
    "address": "US 12;US 287, 56902",
    "city": "",
    "state": "",
    "zip": "",
    "hgv": true,
    "truck_stop": true
  },
  {
    "id": 1428008274,
    "name": "Exxon",
    "brand": "Exxon",
    "lat": 43.238656,
    "lon": -73.686645,
    "address": "1284 Route 9, Gansevoort, NY, 12831",
    "city": "",
    "state": "",
    "zip": "",
    "hgv": true,
    "truck_stop": true
  },
  {
    "id": 1444401200,
    "name": "Exxon",
    "brand": "Exxon",
    "lat": 42.927197,
    "lon": -74.200091,
    "address": "NY 30, City of Amsterdam, NY, 12010",
    "city": "",
    "state": "",
    "zip": "",
    "hgv": true,
    "truck_stop": true
  },
  {
    "id": 11087112606,
    "name": "FL",
    "brand": "Pilot Flying J",
    "lat": 34.855452,
    "lon": -81.006107,
    "address": "Mount Holly Road, 29730",
    "city": "",
    "state": "",
    "zip": "",
    "hgv": false,
    "truck_stop": true
  },
  {
    "id": 1424011915,
    "name": "Fastrac",
    "brand": "Fastrac",
    "lat": 43.110078,
    "lon": -75.251384,
    "address": "Oriskany Street West, City of Utica, NY, 16495",
    "city": "",
    "state": "",
    "zip": "",
    "hgv": true,
    "truck_stop": true
  },
  {
    "id": 597551581,
    "name": "Flying J",
    "brand": "Pilot Flying J",
    "lat": 44.295438,
    "lon": -90.829355,
    "address": "East Main Street, Black River Falls, WI, 54615",
    "city": "",
    "state": "",
    "zip": "",
    "hgv": true,
    "truck_stop": true
  },
  {
    "id": 941981026,
    "name": "Flying J",
    "brand": "Pilot Flying J",
    "lat": 39.549095,
    "lon": -86.036483,
    "address": "North 350 East, 46184",
    "city": "",
    "state": "",
    "zip": "",
    "hgv": true,
    "truck_stop": true
  },
  {
    "id": 941981030,
    "name": "Flying J",
    "brand": "Pilot Flying J",
    "lat": 39.549851,
    "lon": -86.03623,
    "address": "North 350 East, 46184",
    "city": "",
    "state": "",
    "zip": "",
    "hgv": false,
    "truck_stop": true
  },
  {
    "id": 1230095129,
    "name": "Flying J",
    "brand": "Pilot Flying J",
    "lat": 35.53116,
    "lon": -119.187457,
    "address": "Zachary Avenue",
    "city": "",
    "state": "",
    "zip": "",
    "hgv": false,
    "truck_stop": true
  },
  {
    "id": 1478046611,
    "name": "Flying J",
    "brand": "Pilot Flying J",
    "lat": 39.625334,
    "lon": -75.949343,
    "address": "1 Center Drive",
    "city": "",
    "state": "",
    "zip": "",
    "hgv": true,
    "truck_stop": true
  },
  {
    "id": 1608318101,
    "name": "Flying J",
    "brand": "Pilot Flying J",
    "lat": 34.200294,
    "lon": -97.167705,
    "address": "Cooper Drive, Ardmore, OK, 73402",
    "city": "",
    "state": "",
    "zip": "",
    "hgv": true,
    "truck_stop": true
  },
  {
    "id": 2356268732,
    "name": "Flying J",
    "brand": "Pilot Flying J",
    "lat": 39.63832,
    "lon": -75.807523,
    "address": "Belle Hill Road, Elkton, MD, 21920",
    "city": "",
    "state": "",
    "zip": "",
    "hgv": true,
    "truck_stop": true
  },
  {
    "id": 2395415489,
    "name": "Flying J",
    "brand": "Pilot Flying J",
    "lat": 44.295016,
    "lon": -90.83024,
    "address": "East Main Street, Black River Falls, WI, 54615",
    "city": "",
    "state": "",
    "zip": "",
    "hgv": false,
    "truck_stop": true
  },
  {
    "id": 2449961873,
    "name": "Flying J",
    "brand": "Pilot Flying J",
    "lat": 43.602927,
    "lon": -96.767045,
    "address": "West 60th Street North, Sioux Falls, SD, 57107",
    "city": "",
    "state": "",
    "zip": "",
    "hgv": false,
    "truck_stop": true
  },
  {
    "id": 2449961903,
    "name": "Flying J",
    "brand": "Pilot Flying J",
    "lat": 43.603535,
    "lon": -96.767292,
    "address": "North Granite Lane, Sioux Falls, SD, 57107",
    "city": "",
    "state": "",
    "zip": "",
    "hgv": true,
    "truck_stop": true
  },
  {
    "id": 2906575203,
    "name": "Flying J",
    "brand": "Pilot Flying J",
    "lat": 37.752201,
    "lon": -99.97995,
    "address": "East Wyatt Earp Boulevard, Dodge City, KS, 67801",
    "city": "",
    "state": "",
    "zip": "",
    "hgv": false,
    "truck_stop": true
  },
  {
    "id": 3076780914,
    "name": "Flying J",
    "brand": "Pilot Flying J",
    "lat": 34.064697,
    "lon": -81.023515,
    "address": "Buckner Road, Columbia, SC, 29203",
    "city": "",
    "state": "",
    "zip": "",
    "hgv": false,
    "truck_stop": true
  },
  {
    "id": 3243666016,
    "name": "Flying J",
    "brand": "Pilot Flying J",
    "lat": 39.762466,
    "lon": -104.79289,
    "address": "Ouray Street, Aurora, CO, 80011",
    "city": "",
    "state": "",
    "zip": "",
    "hgv": false,
    "truck_stop": true
  },
  {
    "id": 3931967108,
    "name": "Flying J",
    "brand": "Pilot Flying J",
    "lat": 41.609442,
    "lon": -109.230572,
    "address": "Stagecoach Boulevard, Rock Springs, WY, 82901",
    "city": "",
    "state": "",
    "zip": "",
    "hgv": false,
    "truck_stop": true
  },
  {
    "id": 4593620430,
    "name": "Flying J",
    "brand": "Pilot Flying J",
    "lat": 41.059706,
    "lon": -84.980297,
    "address": "South Doyle Road, New Haven, IN, 46774",
    "city": "",
    "state": "",
    "zip": "",
    "hgv": false,
    "truck_stop": true
  },
  {
    "id": 4719302823,
    "name": "Flying J",
    "brand": "Pilot Flying J",
    "lat": 32.731739,
    "lon": -111.549733,
    "address": "CAT Scale, Eloy, AZ, 85231",
    "city": "",
    "state": "",
    "zip": "",
    "hgv": true,
    "truck_stop": true
  },
  {
    "id": 4719302824,
    "name": "Flying J",
    "brand": "Pilot Flying J",
    "lat": 32.732385,
    "lon": -111.549872,
    "address": "South Sunshine Boulevard, Eloy, AZ, 85231",
    "city": "",
    "state": "",
    "zip": "",
    "hgv": false,
    "truck_stop": true
  },
  {
    "id": 5048592723,
    "name": "Flying J",
    "brand": "Pilot Flying J",
    "lat": 45.297397,
    "lon": -118.0435,
    "address": "Flying J Lagrand Auto Fuel",
    "city": "",
    "state": "",
    "zip": "",
    "hgv": false,
    "truck_stop": true
  },
  {
    "id": 5325322135,
    "name": "Flying J",
    "brand": "Pilot Flying J",
    "lat": 39.275407,
    "lon": -103.709749,
    "address": "Williams Avenue, Limon, CO, 80828",
    "city": "",
    "state": "",
    "zip": "",
    "hgv": true,
    "truck_stop": true
  },
  {
    "id": 6324408991,
    "name": "Flying J",
    "brand": "Pilot Flying J",
    "lat": 31.190873,
    "lon": -101.449748,
    "address": "US 67, Big Lake, TX, 76932",
    "city": "",
    "state": "",
    "zip": "",
    "hgv": false,
    "truck_stop": true
  },
  {
    "id": 9225653472,
    "name": "Flying J",
    "brand": "Pilot Flying J",
    "lat": 43.662071,
    "lon": -116.654736,
    "address": "Franklin Road, Caldwell, ID, 83605",
    "city": "",
    "state": "",
    "zip": "",
    "hgv": false,
    "truck_stop": true
  },
  {
    "id": 9826816447,
    "name": "Flying J",
    "brand": "Pilot Flying J",
    "lat": 38.117156,
    "lon": -121.393842,
    "address": "Thornton Road",
    "city": "",
    "state": "",
    "zip": "",
    "hgv": false,
    "truck_stop": true
  },
  {
    "id": 10062606869,
    "name": "Flying J",
    "brand": "Pilot Flying J",
    "lat": 31.140873,
    "lon": -81.578289,
    "address": "2990 Fancy Bluff Road West, Brunswick, GA, 31523",
    "city": "",
    "state": "",
    "zip": "",
    "hgv": true,
    "truck_stop": true
  },
  {
    "id": 10075493296,
    "name": "Flying J",
    "brand": "Pilot Flying J",
    "lat": 38.156225,
    "lon": -85.067714,
    "address": "Waddy Road, 40076",
    "city": "",
    "state": "",
    "zip": "",
    "hgv": false,
    "truck_stop": true
  },
  {
    "id": 10088156760,
    "name": "Flying J",
    "brand": "Pilot Flying J",
    "lat": 34.854118,
    "lon": -117.080699,
    "address": "High Point Parkway, Barstow, CA, 92347",
    "city": "",
    "state": "",
    "zip": "",
    "hgv": true,
    "truck_stop": true
  },
  {
    "id": 10923121075,
    "name": "Flying J",
    "brand": "Pilot Flying J",
    "lat": 41.019014,
    "lon": -76.796008,
    "address": "N Ridge Road, Turbot Township, PA, 17865",
    "city": "",
    "state": "",
    "zip": "",
    "hgv": false,
    "truck_stop": true
  },
  {
    "id": 10923316992,
    "name": "Flying J",
    "brand": "Pilot Flying J",
    "lat": 41.231215,
    "lon": -112.007325,
    "address": "South 1100 West, West Haven, UT, 84201",
    "city": "",
    "state": "",
    "zip": "",
    "hgv": true,
    "truck_stop": true
  },
  {
    "id": 11004530277,
    "name": "Flying J",
    "brand": "Pilot Flying J",
    "lat": 36.944884,
    "lon": -80.946739,
    "address": "139 Factory Outlet Road, Max Meadows, VA, 24360",
    "city": "",
    "state": "",
    "zip": "",
    "hgv": false,
    "truck_stop": true
  },
  {
    "id": 11367132284,
    "name": "Flying J",
    "brand": "Pilot Flying J",
    "lat": 36.696908,
    "lon": -87.454714,
    "address": "Herndon Oak Grove Road, Oak Grove, KY, 42223",
    "city": "",
    "state": "",
    "zip": "",
    "hgv": false,
    "truck_stop": true
  },
  {
    "id": 12007395538,
    "name": "Flying J",
    "brand": "Pilot Flying J",
    "lat": 33.602037,
    "lon": -114.522567,
    "address": "Pearl Harbor Memorial Highway, 85334",
    "city": "",
    "state": "",
    "zip": "",
    "hgv": false,
    "truck_stop": true
  },
  {
    "id": 12101432337,
    "name": "Flying J",
    "brand": "Pilot Flying J",
    "lat": 34.854081,
    "lon": -117.081588,
    "address": "2930 Lenwood Road, Barstow, CA, 92311",
    "city": "",
    "state": "",
    "zip": "",
    "hgv": false,
    "truck_stop": true
  },
  {
    "id": 12101453184,
    "name": "Flying J",
    "brand": "Pilot Flying J",
    "lat": 34.816754,
    "lon": -118.887426,
    "address": "Frazier Mountain Park Road, 92343",
    "city": "",
    "state": "",
    "zip": "",
    "hgv": true,
    "truck_stop": true
  },
  {
    "id": 12142985739,
    "name": "Flying J",
    "brand": "Pilot Flying J",
    "lat": 41.230716,
    "lon": -112.007074,
    "address": "West 2050 South, West Haven, UT, 84201",
    "city": "",
    "state": "",
    "zip": "",
    "hgv": false,
    "truck_stop": true
  },
  {
    "id": 12163118084,
    "name": "Flying J",
    "brand": "Pilot Flying J",
    "lat": 39.851512,
    "lon": -85.413382,
    "address": "SR 3, 47362",
    "city": "",
    "state": "",
    "zip": "",
    "hgv": false,
    "truck_stop": true
  },
  {
    "id": 12163118085,
    "name": "Flying J",
    "brand": "Pilot Flying J",
    "lat": 39.851249,
    "lon": -85.412571,
    "address": "SR 3, 47362",
    "city": "",
    "state": "",
    "zip": "",
    "hgv": true,
    "truck_stop": true
  },
  {
    "id": 12164999676,
    "name": "Flying J",
    "brand": "Pilot Flying J",
    "lat": 29.771267,
    "lon": -95.124818,
    "address": "Sheldon Road, Channelview, TX, 77530",
    "city": "",
    "state": "",
    "zip": "",
    "hgv": false,
    "truck_stop": true
  },
  {
    "id": 12164999677,
    "name": "Flying J",
    "brand": "Pilot Flying J",
    "lat": 29.771231,
    "lon": -95.125605,
    "address": "Market Street, Channelview, TX, 77530",
    "city": "",
    "state": "",
    "zip": "",
    "hgv": true,
    "truck_stop": true
  },
  {
    "id": 12167548978,
    "name": "Flying J",
    "brand": "Pilot Flying J",
    "lat": 41.609084,
    "lon": -109.231101,
    "address": "Stagecoach Boulevard, Rock Springs, WY, 82901",
    "city": "",
    "state": "",
    "zip": "",
    "hgv": true,
    "truck_stop": true
  },
  {
    "id": 12245925364,
    "name": "Flying J",
    "brand": "Pilot Flying J",
    "lat": 36.944558,
    "lon": -80.945745,
    "address": "139 Fort Chiswell Road, Max Meadows, VA, 24360",
    "city": "",
    "state": "",
    "zip": "",
    "hgv": true,
    "truck_stop": true
  },
  {
    "id": 12300433387,
    "name": "Flying J",
    "brand": "Pilot Flying J",
    "lat": 47.663354,
    "lon": -117.315544,
    "address": "East Broadway Avenue, Spokane Valley, WA, 99260",
    "city": "",
    "state": "",
    "zip": "",
    "hgv": true,
    "truck_stop": true
  },
  {
    "id": 12327624251,
    "name": "Flying J",
    "brand": "Pilot Flying J",
    "lat": 35.475956,
    "lon": -95.53863,
    "address": "West Gentry Avenue, Checotah, OK, 74426",
    "city": "",
    "state": "",
    "zip": "",
    "hgv": false,
    "truck_stop": true
  },
  {
    "id": 12327624252,
    "name": "Flying J",
    "brand": "Pilot Flying J",
    "lat": 35.475966,
    "lon": -95.539149,
    "address": "West Gentry Avenue, Checotah, OK, 74426",
    "city": "",
    "state": "",
    "zip": "",
    "hgv": false,
    "truck_stop": true
  },
  {
    "id": 12327624253,
    "name": "Flying J",
    "brand": "Pilot Flying J",
    "lat": 35.475721,
    "lon": -95.538413,
    "address": "West Gentry Avenue, Checotah, OK, 74426",
    "city": "",
    "state": "",
    "zip": "",
    "hgv": false,
    "truck_stop": true
  },
  {
    "id": 12450059201,
    "name": "Flying J",
    "brand": "Pilot Flying J",
    "lat": 38.879119,
    "lon": -97.593039,
    "address": "North Ohio Street, Salina, KS, 67401",
    "city": "",
    "state": "",
    "zip": "",
    "hgv": false,
    "truck_stop": true
  },
  {
    "id": 12636139245,
    "name": "Flying J",
    "brand": "Pilot Flying J",
    "lat": 37.752398,
    "lon": -99.980607,
    "address": "East Wyatt Earp Boulevard, Dodge City, KS, 67801",
    "city": "",
    "state": "",
    "zip": "",
    "hgv": true,
    "truck_stop": true
  },
  {
    "id": 13273784145,
    "name": "Flying J",
    "brand": "Pilot Flying J",
    "lat": 38.840317,
    "lon": -91.228027,
    "address": "West Veterans Memorial Parkway, Warrenton, MO, 63383",
    "city": "",
    "state": "",
    "zip": "",
    "hgv": false,
    "truck_stop": true
  },
  {
    "id": 34196745,
    "name": "Flying J",
    "brand": "Pilot Flying J",
    "lat": 41.072204,
    "lon": -111.979033,
    "address": "Hill Field Road, Layton, UT, 84041",
    "city": "",
    "state": "",
    "zip": "",
    "hgv": false,
    "truck_stop": true
  },
  {
    "id": 99402458,
    "name": "Flying J",
    "brand": "Pilot Flying J",
    "lat": 36.161925,
    "lon": -95.832574,
    "address": "North 129th East Avenue, Tulsa, OK, 74116",
    "city": "",
    "state": "",
    "zip": "",
    "hgv": false,
    "truck_stop": true
  },
  {
    "id": 99402478,
    "name": "Flying J",
    "brand": "Pilot Flying J",
    "lat": 36.162533,
    "lon": -95.832363,
    "address": "North 129th East Avenue, Tulsa, OK, 74116",
    "city": "",
    "state": "",
    "zip": "",
    "hgv": true,
    "truck_stop": true
  },
  {
    "id": 125111198,
    "name": "Flying J",
    "brand": "Pilot Flying J",
    "lat": 34.408097,
    "lon": -117.398637,
    "address": "8701 Blue Star Memorial Highway, Hesperia, CA, 92344",
    "city": "",
    "state": "",
    "zip": "",
    "hgv": false,
    "truck_stop": true
  },
  {
    "id": 130280941,
    "name": "Flying J",
    "brand": "Pilot Flying J",
    "lat": 33.460637,
    "lon": -112.204519,
    "address": "North 67th Avenue, Phoenix, AZ, 85035",
    "city": "",
    "state": "",
    "zip": "",
    "hgv": false,
    "truck_stop": true
  },
  {
    "id": 144341226,
    "name": "Flying J",
    "brand": "Pilot Flying J",
    "lat": 35.015486,
    "lon": -110.674666,
    "address": "Transcon Lane, Winslow, AZ, 86047",
    "city": "",
    "state": "",
    "zip": "",
    "hgv": false,
    "truck_stop": true
  },
  {
    "id": 144341264,
    "name": "Flying J",
    "brand": "Pilot Flying J",
    "lat": 35.015988,
    "lon": -110.674019,
    "address": "Purple Heart Trail, Winslow, AZ",
    "city": "",
    "state": "",
    "zip": "",
    "hgv": true,
    "truck_stop": true
  },
  {
    "id": 219424151,
    "name": "Flying J",
    "brand": "Pilot Flying J",
    "lat": 35.153881,
    "lon": -90.144355,
    "address": "Service Loop Road, West Memphis, AR, 72301",
    "city": "",
    "state": "",
    "zip": "",
    "hgv": false,
    "truck_stop": true
  },
  {
    "id": 219843901,
    "name": "Flying J",
    "brand": "Pilot Flying J",
    "lat": 33.20748,
    "lon": -84.063652,
    "address": "Bucksnort Road",
    "city": "",
    "state": "",
    "zip": "",
    "hgv": false,
    "truck_stop": true
  },
  {
    "id": 220626590,
    "name": "Flying J",
    "brand": "Pilot Flying J",
    "lat": 40.170023,
    "lon": -79.732189,
    "address": "Fitz Henry Road, South Huntingdon Township, PA, 15479",
    "city": "",
    "state": "",
    "zip": "",
    "hgv": false,
    "truck_stop": true
  },
  {
    "id": 220645843,
    "name": "Flying J",
    "brand": "Pilot Flying J",
    "lat": 41.028425,
    "lon": -77.522407,
    "address": "Nittany Valley Drive, Porter Township, PA, 16848",
    "city": "",
    "state": "",
    "zip": "",
    "hgv": false,
    "truck_stop": true
  },
  {
    "id": 220645845,
    "name": "Flying J",
    "brand": "Pilot Flying J",
    "lat": 41.027957,
    "lon": -77.523182,
    "address": "Dotterer Road, Porter Township, PA, 16848",
    "city": "",
    "state": "",
    "zip": "",
    "hgv": false,
    "truck_stop": true
  },
  {
    "id": 220739938,
    "name": "Flying J",
    "brand": "Pilot Flying J",
    "lat": 39.290605,
    "lon": -78.086593,
    "address": "1530 Rest Church Road, 22624",
    "city": "",
    "state": "",
    "zip": "",
    "hgv": false,
    "truck_stop": true
  },
  {
    "id": 220780610,
    "name": "Flying J",
    "brand": "Pilot Flying J",
    "lat": 41.790053,
    "lon": -80.855915,
    "address": "Cars & Trailers Only, Saybrook Township, OH, 44010",
    "city": "",
    "state": "",
    "zip": "",
    "hgv": true,
    "truck_stop": true
  },
  {
    "id": 220794341,
    "name": "Flying J",
    "brand": "Pilot Flying J",
    "lat": 37.938736,
    "lon": -77.46706,
    "address": "23840 Rogers Clark Boulevard",
    "city": "",
    "state": "",
    "zip": "22546",
    "hgv": false,
    "truck_stop": true
  },
  {
    "id": 220888560,
    "name": "Flying J",
    "brand": "Pilot Flying J",
    "lat": 36.93596,
    "lon": -80.992864,
    "address": "Chapman Road",
    "city": "",
    "state": "",
    "zip": "",
    "hgv": false,
    "truck_stop": true
  },
  {
    "id": 221382313,
    "name": "Flying J",
    "brand": "Pilot Flying J",
    "lat": 39.692957,
    "lon": -86.190533,
    "address": "West Thompson Road, Indianapolis, IN, 46217",
    "city": "",
    "state": "",
    "zip": "",
    "hgv": false,
    "truck_stop": true
  },
  {
    "id": 223428884,
    "name": "Flying J",
    "brand": "Pilot Flying J",
    "lat": 28.326375,
    "lon": -82.321721,
    "address": "State Road 52, 33576",
    "city": "",
    "state": "",
    "zip": "",
    "hgv": true,
    "truck_stop": true
  },
  {
    "id": 223428886,
    "name": "Flying J",
    "brand": "Pilot Flying J",
    "lat": 28.326051,
    "lon": -82.322466,
    "address": "State Road 52, 33576",
    "city": "",
    "state": "",
    "zip": "",
    "hgv": false,
    "truck_stop": true
  },
  {
    "id": 223480507,
    "name": "Flying J",
    "brand": "Pilot Flying J",
    "lat": 38.760408,
    "lon": -90.065458,
    "address": "1310 East Chain of Rocks Road, Pontoon Beach, IL, 62040",
    "city": "",
    "state": "",
    "zip": "",
    "hgv": false,
    "truck_stop": true
  },
  {
    "id": 225056623,
    "name": "Flying J",
    "brand": "Pilot Flying J",
    "lat": 46.833549,
    "lon": -96.844111,
    "address": "32nd Avenue, Fargo, ND, 58107",
    "city": "",
    "state": "",
    "zip": "",
    "hgv": true,
    "truck_stop": true
  },
  {
    "id": 225720059,
    "name": "Flying J",
    "brand": "Pilot Flying J",
    "lat": 29.794851,
    "lon": -95.032974,
    "address": "Thompson Road, Baytown, TX, 77562",
    "city": "",
    "state": "",
    "zip": "",
    "hgv": true,
    "truck_stop": true
  },
  {
    "id": 225720064,
    "name": "Flying J",
    "brand": "Pilot Flying J",
    "lat": 29.795519,
    "lon": -95.032678,
    "address": "1876 East Freeway, Baytown, TX, 77562",
    "city": "",
    "state": "",
    "zip": "",
    "hgv": false,
    "truck_stop": true
  },
  {
    "id": 225809550,
    "name": "Flying J",
    "brand": "Pilot Flying J",
    "lat": 32.444443,
    "lon": -93.978876,
    "address": "Greenwood Road, Greenwood, LA, 71033",
    "city": "",
    "state": "",
    "zip": "",
    "hgv": true,
    "truck_stop": true
  },
  {
    "id": 225809552,
    "name": "Flying J",
    "brand": "Pilot Flying J",
    "lat": 32.444183,
    "lon": -93.979683,
    "address": "Greenwood Road, Greenwood, LA, 71033",
    "city": "",
    "state": "",
    "zip": "",
    "hgv": false,
    "truck_stop": true
  },
  {
    "id": 226328543,
    "name": "Flying J",
    "brand": "Pilot Flying J",
    "lat": 35.159061,
    "lon": -103.703644,
    "address": "South Mountain Road, Tucumcari, NM, 88401",
    "city": "",
    "state": "",
    "zip": "",
    "hgv": false,
    "truck_stop": true
  },
  {
    "id": 226616572,
    "name": "Flying J",
    "brand": "Pilot Flying J",
    "lat": 39.762724,
    "lon": -104.793785,
    "address": "East 32nd Avenue, Aurora, CO, 80011",
    "city": "",
    "state": "",
    "zip": "",
    "hgv": true,
    "truck_stop": true
  },
  {
    "id": 226827097,
    "name": "Flying J",
    "brand": "Pilot Flying J",
    "lat": 44.277369,
    "lon": -105.494884,
    "address": "South Douglas Highway, Gillette, WY, 82718",
    "city": "",
    "state": "",
    "zip": "",
    "hgv": false,
    "truck_stop": true
  },
  {
    "id": 226827099,
    "name": "Flying J",
    "brand": "Pilot Flying J",
    "lat": 44.277076,
    "lon": -105.495299,
    "address": "East Boxelder Road, Gillette, WY, 82718",
    "city": "",
    "state": "",
    "zip": "",
    "hgv": true,
    "truck_stop": true
  },
  {
    "id": 226885966,
    "name": "Flying J",
    "brand": "Pilot Flying J",
    "lat": 28.010148,
    "lon": -82.303333,
    "address": "Lazy Days Boulevard, 33584",
    "city": "",
    "state": "",
    "zip": "",
    "hgv": false,
    "truck_stop": true
  },
  {
    "id": 226885968,
    "name": "Flying J",
    "brand": "Pilot Flying J",
    "lat": 28.009977,
    "lon": -82.303805,
    "address": "East Sligh Avenue, 33584",
    "city": "",
    "state": "",
    "zip": "",
    "hgv": true,
    "truck_stop": true
  },
  {
    "id": 229304828,
    "name": "Flying J",
    "brand": "Pilot Flying J",
    "lat": 27.685833,
    "lon": -99.465611,
    "address": "Beltway Parkway, Laredo, TX",
    "city": "",
    "state": "",
    "zip": "",
    "hgv": true,
    "truck_stop": true
  },
  {
    "id": 229304831,
    "name": "Flying J",
    "brand": "Pilot Flying J",
    "lat": 27.685613,
    "lon": -99.464798,
    "address": "Beltway Parkway, Laredo, TX",
    "city": "",
    "state": "",
    "zip": "",
    "hgv": false,
    "truck_stop": true
  },
  {
    "id": 229315095,
    "name": "Flying J",
    "brand": "Pilot Flying J",
    "lat": 29.446665,
    "lon": -98.362011,
    "address": "Interstate 10 East, San Antonio, TX, 78244",
    "city": "",
    "state": "",
    "zip": "",
    "hgv": true,
    "truck_stop": true
  },
  {
    "id": 229315097,
    "name": "Flying J",
    "brand": "Pilot Flying J",
    "lat": 29.446072,
    "lon": -98.36127,
    "address": "Interstate 10 East, San Antonio, TX, 78244",
    "city": "",
    "state": "",
    "zip": "",
    "hgv": false,
    "truck_stop": true
  },
  {
    "id": 229322030,
    "name": "Flying J",
    "brand": "Pilot Flying J",
    "lat": 39.94242,
    "lon": -82.599208,
    "address": "Baltimore Road Southwest, Kirkersville, OH, 43046",
    "city": "",
    "state": "",
    "zip": "",
    "hgv": false,
    "truck_stop": true
  },
  {
    "id": 229322031,
    "name": "Flying J",
    "brand": "Pilot Flying J",
    "lat": 39.943122,
    "lon": -82.599481,
    "address": "Baltimore Road Southwest, Kirkersville, OH, 43046",
    "city": "",
    "state": "",
    "zip": "",
    "hgv": false,
    "truck_stop": true
  },
  {
    "id": 229323376,
    "name": "Flying J",
    "brand": "Pilot Flying J",
    "lat": 40.267244,
    "lon": -82.924963,
    "address": "7735 State Route 37 East, Berkshire, OH, 43074",
    "city": "",
    "state": "",
    "zip": "",
    "hgv": false,
    "truck_stop": true
  },
  {
    "id": 229323378,
    "name": "Flying J",
    "brand": "Pilot Flying J",
    "lat": 40.267388,
    "lon": -82.924058,
    "address": "State Route 37 East, Berkshire, OH",
    "city": "",
    "state": "",
    "zip": "",
    "hgv": false,
    "truck_stop": true
  },
  {
    "id": 229595012,
    "name": "Flying J",
    "brand": "Pilot Flying J",
    "lat": 40.685837,
    "lon": -112.266939,
    "address": "SR 36, Lake Point, UT",
    "city": "",
    "state": "",
    "zip": "",
    "hgv": false,
    "truck_stop": true
  },
  {
    "id": 229595013,
    "name": "Flying J",
    "brand": "Pilot Flying J",
    "lat": 40.685759,
    "lon": -112.266127,
    "address": "Saddleback Boulevard, Lake Point, UT",
    "city": "",
    "state": "",
    "zip": "",
    "hgv": true,
    "truck_stop": true
  },
  {
    "id": 230483735,
    "name": "Flying J",
    "brand": "Pilot Flying J",
    "lat": 33.56238,
    "lon": -86.831512,
    "address": "Daniel Payne Drive, Birmingham, AL, 35207",
    "city": "",
    "state": "",
    "zip": "",
    "hgv": true,
    "truck_stop": true
  },
  {
    "id": 230484017,
    "name": "Flying J",
    "brand": "Pilot Flying J",
    "lat": 31.191325,
    "lon": -85.400634,
    "address": "2190 Ross Clark Circle",
    "city": "",
    "state": "",
    "zip": "36301",
    "hgv": false,
    "truck_stop": true
  },
  {
    "id": 230486089,
    "name": "Flying J",
    "brand": "Pilot Flying J",
    "lat": 33.602123,
    "lon": -114.523498,
    "address": "I-10 Exit 1 Pearl Harbor Memorial Highway, 85334",
    "city": "",
    "state": "",
    "zip": "",
    "hgv": true,
    "truck_stop": true
  },
  {
    "id": 230486476,
    "name": "Flying J",
    "brand": "Pilot Flying J",
    "lat": 35.21968,
    "lon": -114.007503,
    "address": "East Andy Devine Avenue, Kingman, AZ, 86401",
    "city": "",
    "state": "",
    "zip": "",
    "hgv": false,
    "truck_stop": true
  },
  {
    "id": 230489757,
    "name": "Flying J",
    "brand": "Pilot Flying J",
    "lat": 35.283712,
    "lon": -93.090105,
    "address": "Bradley Cove Road, Russellville, AR, 72801",
    "city": "",
    "state": "",
    "zip": "",
    "hgv": false,
    "truck_stop": true
  },
  {
    "id": 230490200,
    "name": "Flying J",
    "brand": "Pilot Flying J",
    "lat": 33.513535,
    "lon": -93.948516,
    "address": "State Highway 108, Texarkana, AR",
    "city": "",
    "state": "",
    "zip": "",
    "hgv": false,
    "truck_stop": true
  },
  {
    "id": 230490202,
    "name": "Flying J",
    "brand": "Pilot Flying J",
    "lat": 33.512905,
    "lon": -93.948269,
    "address": "State Highway 108, Texarkana, AR",
    "city": "",
    "state": "",
    "zip": "",
    "hgv": false,
    "truck_stop": true
  },
  {
    "id": 230492663,
    "name": "Flying J",
    "brand": "Pilot Flying J",
    "lat": 30.493085,
    "lon": -84.429659,
    "address": "Blue Star Highway, 32343",
    "city": "",
    "state": "",
    "zip": "",
    "hgv": true,
    "truck_stop": true
  },
  {
    "id": 230492665,
    "name": "Flying J",
    "brand": "Pilot Flying J",
    "lat": 30.492866,
    "lon": -84.428851,
    "address": "Blue Star Highway, 32343",
    "city": "",
    "state": "",
    "zip": "",
    "hgv": false,
    "truck_stop": true
  },
  {
    "id": 230495145,
    "name": "Flying J",
    "brand": "Pilot Flying J",
    "lat": 42.660267,
    "lon": -112.206149,
    "address": "I 15 Business;US 30, McCammon, ID, 83250",
    "city": "",
    "state": "",
    "zip": "",
    "hgv": true,
    "truck_stop": true
  },
  {
    "id": 230495147,
    "name": "Flying J",
    "brand": "Pilot Flying J",
    "lat": 42.660413,
    "lon": -112.206875,
    "address": "I 15 Business;US 30, McCammon, ID, 83250",
    "city": "",
    "state": "",
    "zip": "",
    "hgv": false,
    "truck_stop": true
  },
  {
    "id": 230774785,
    "name": "Flying J",
    "brand": "Pilot Flying J",
    "lat": 41.368617,
    "lon": -89.097831,
    "address": "343 Civic Road",
    "city": "",
    "state": "",
    "zip": "",
    "hgv": false,
    "truck_stop": true
  },
  {
    "id": 230774787,
    "name": "Flying J",
    "brand": "Pilot Flying J",
    "lat": 41.368777,
    "lon": -89.099188,
    "address": "Civic Road, LaSalle, IL, 61301",
    "city": "",
    "state": "",
    "zip": "",
    "hgv": false,
    "truck_stop": true
  },
  {
    "id": 230879553,
    "name": "Flying J",
    "brand": "Pilot Flying J",
    "lat": 34.928751,
    "lon": -89.793062,
    "address": "Business Center Drive, Olive Branch, MS, 38654",
    "city": "",
    "state": "",
    "zip": "",
    "hgv": true,
    "truck_stop": true
  },
  {
    "id": 230880672,
    "name": "Flying J",
    "brand": "Pilot Flying J",
    "lat": 40.960025,
    "lon": -117.747721,
    "address": "West Winnemucca Boulevard, Winnemucca, NV, 89445",
    "city": "",
    "state": "",
    "zip": "",
    "hgv": false,
    "truck_stop": true
  },
  {
    "id": 231125134,
    "name": "Flying J",
    "brand": "Pilot Flying J",
    "lat": 46.929265,
    "lon": -104.008974,
    "address": "State Highway 16, 58621",
    "city": "",
    "state": "",
    "zip": "",
    "hgv": false,
    "truck_stop": true
  },
  {
    "id": 231125135,
    "name": "Flying J",
    "brand": "Pilot Flying J",
    "lat": 46.929713,
    "lon": -104.008767,
    "address": "State Highway 16, 58621",
    "city": "",
    "state": "",
    "zip": "",
    "hgv": false,
    "truck_stop": true
  },
  {
    "id": 231125523,
    "name": "Flying J",
    "brand": "Pilot Flying J",
    "lat": 35.14281,
    "lon": -81.509261,
    "address": "Shaman Road, 29701",
    "city": "",
    "state": "",
    "zip": "",
    "hgv": true,
    "truck_stop": true
  },
  {
    "id": 231125524,
    "name": "Flying J",
    "brand": "Pilot Flying J",
    "lat": 35.142088,
    "lon": -81.509079,
    "address": "North Mountain Street, Blacksburg, SC, 29702",
    "city": "",
    "state": "",
    "zip": "",
    "hgv": false,
    "truck_stop": true
  },
  {
    "id": 235551493,
    "name": "Flying J",
    "brand": "Pilot Flying J",
    "lat": 41.603291,
    "lon": -90.625184,
    "address": "West 83rd Street, Davenport, IA, 52806",
    "city": "",
    "state": "",
    "zip": "",
    "hgv": false,
    "truck_stop": true
  },
  {
    "id": 235560503,
    "name": "Flying J",
    "brand": "Pilot Flying J",
    "lat": 41.778385,
    "lon": -107.309025,
    "address": "Dwight D. Eisenhower Highway",
    "city": "",
    "state": "",
    "zip": "",
    "hgv": false,
    "truck_stop": true
  },
  {
    "id": 235560504,
    "name": "Flying J",
    "brand": "Pilot Flying J",
    "lat": 41.778095,
    "lon": -107.309798,
    "address": "Dwight D. Eisenhower Highway",
    "city": "",
    "state": "",
    "zip": "",
    "hgv": false,
    "truck_stop": true
  },
  {
    "id": 236125439,
    "name": "Flying J",
    "brand": "Pilot Flying J",
    "lat": 29.780051,
    "lon": -95.951756,
    "address": "Waller Avenue, Brookshire, TX, 77423",
    "city": "",
    "state": "",
    "zip": "",
    "hgv": false,
    "truck_stop": true
  },
  {
    "id": 236128108,
    "name": "Flying J",
    "brand": "Pilot Flying J",
    "lat": 26.336091,
    "lon": -98.143015,
    "address": "East Monte Cristo Road, Edinburg, TX, 78542",
    "city": "",
    "state": "",
    "zip": "",
    "hgv": true,
    "truck_stop": true
  },
  {
    "id": 236128110,
    "name": "Flying J",
    "brand": "Pilot Flying J",
    "lat": 26.33591,
    "lon": -98.143679,
    "address": "East Monte Cristo Road, Edinburg, TX, 78542",
    "city": "",
    "state": "",
    "zip": "",
    "hgv": false,
    "truck_stop": true
  },
  {
    "id": 236128750,
    "name": "Flying J",
    "brand": "Pilot Flying J",
    "lat": 29.998805,
    "lon": -95.427837,
    "address": "North Freeway Frontage Road, 77090",
    "city": "",
    "state": "",
    "zip": "",
    "hgv": true,
    "truck_stop": true
  },
  {
    "id": 236128752,
    "name": "Flying J",
    "brand": "Pilot Flying J",
    "lat": 29.998637,
    "lon": -95.42698,
    "address": "North Freeway Frontage Road, 77090",
    "city": "",
    "state": "",
    "zip": "",
    "hgv": false,
    "truck_stop": true
  },
  {
    "id": 236129760,
    "name": "Flying J",
    "brand": "Pilot Flying J",
    "lat": 33.592751,
    "lon": -101.841019,
    "address": "Marsha Sharp Freeway, Lubbock, TX, 79408",
    "city": "",
    "state": "",
    "zip": "",
    "hgv": false,
    "truck_stop": true
  },
  {
    "id": 236129763,
    "name": "Flying J",
    "brand": "Pilot Flying J",
    "lat": 33.593024,
    "lon": -101.841616,
    "address": "Avenue F, Lubbock, TX, 79401",
    "city": "",
    "state": "",
    "zip": "",
    "hgv": true,
    "truck_stop": true
  },
  {
    "id": 236130697,
    "name": "Flying J",
    "brand": "Pilot Flying J",
    "lat": 30.193039,
    "lon": -95.193112,
    "address": "State Highway 242, 77537",
    "city": "",
    "state": "",
    "zip": "",
    "hgv": true,
    "truck_stop": true
  },
  {
    "id": 236130699,
    "name": "Flying J",
    "brand": "Pilot Flying J",
    "lat": 30.192988,
    "lon": -95.192404,
    "address": "State Highway 242, 77357",
    "city": "",
    "state": "",
    "zip": "",
    "hgv": false,
    "truck_stop": true
  },
  {
    "id": 236133147,
    "name": "Flying J",
    "brand": "Pilot Flying J",
    "lat": 30.117031,
    "lon": -93.819971,
    "address": "State Highway 62 North, Orange, TX, 77632",
    "city": "",
    "state": "",
    "zip": "",
    "hgv": true,
    "truck_stop": true
  },
  {
    "id": 236133148,
    "name": "Flying J",
    "brand": "Pilot Flying J",
    "lat": 30.116349,
    "lon": -93.820163,
    "address": "I 10;US 90, Orange, TX, 77630",
    "city": "",
    "state": "",
    "zip": "",
    "hgv": false,
    "truck_stop": true
  },
  {
    "id": 236134091,
    "name": "Flying J",
    "brand": "Pilot Flying J",
    "lat": 32.461696,
    "lon": -99.872548,
    "address": "North FM 707, Tye, TX, 79563",
    "city": "",
    "state": "",
    "zip": "",
    "hgv": true,
    "truck_stop": true
  },
  {
    "id": 236134093,
    "name": "Flying J",
    "brand": "Pilot Flying J",
    "lat": 32.460958,
    "lon": -99.872631,
    "address": "North Access Road, Tye, TX, 79563",
    "city": "",
    "state": "",
    "zip": "",
    "hgv": false,
    "truck_stop": true
  },
  {
    "id": 236134445,
    "name": "Flying J",
    "brand": "Pilot Flying J",
    "lat": 31.507946,
    "lon": -97.145713,
    "address": "South New Road, Waco, TX, 76711",
    "city": "",
    "state": "",
    "zip": "",
    "hgv": true,
    "truck_stop": true
  },
  {
    "id": 236134447,
    "name": "Flying J",
    "brand": "Pilot Flying J",
    "lat": 31.507847,
    "lon": -97.145011,
    "address": "2409 South New Road, Waco, TX, 76711",
    "city": "",
    "state": "",
    "zip": "",
    "hgv": false,
    "truck_stop": true
  },
  {
    "id": 264215609,
    "name": "Flying J",
    "brand": "Pilot Flying J",
    "lat": 35.609717,
    "lon": -115.391709,
    "address": "West Primm Boulevard, Primm, NV",
    "city": "",
    "state": "",
    "zip": "",
    "hgv": true,
    "truck_stop": true
  },
  {
    "id": 265727846,
    "name": "Flying J",
    "brand": "Pilot Flying J",
    "lat": 36.486626,
    "lon": -80.746193,
    "address": "125 Plaza Lane, Mount Airy, NC, 27030",
    "city": "",
    "state": "",
    "zip": "",
    "hgv": false,
    "truck_stop": true
  },
  {
    "id": 265727848,
    "name": "Flying J",
    "brand": "Pilot Flying J",
    "lat": 36.486848,
    "lon": -80.746986,
    "address": "125 Plaza Lane, Mount Airy, NC, 27030",
    "city": "",
    "state": "",
    "zip": "",
    "hgv": true,
    "truck_stop": true
  },
  {
    "id": 375323034,
    "name": "Flying J",
    "brand": "Pilot Flying J",
    "lat": 43.439932,
    "lon": -112.115739,
    "address": "6478 West 65th South, Idaho Falls, ID, 83402",
    "city": "",
    "state": "",
    "zip": "",
    "hgv": true,
    "truck_stop": true
  },
  {
    "id": 375323035,
    "name": "Flying J",
    "brand": "Pilot Flying J",
    "lat": 43.43937,
    "lon": -112.115688,
    "address": "6478 West 65th South, Idaho Falls, ID, 83402",
    "city": "",
    "state": "",
    "zip": "",
    "hgv": false,
    "truck_stop": true
  },
  {
    "id": 415836422,
    "name": "Flying J",
    "brand": "Pilot Flying J",
    "lat": 31.864909,
    "lon": -102.301647,
    "address": "5900 Southeast Loop 338, Odessa, TX, 79761",
    "city": "",
    "state": "",
    "zip": "",
    "hgv": false,
    "truck_stop": true
  },
  {
    "id": 415836423,
    "name": "Flying J",
    "brand": "Pilot Flying J",
    "lat": 31.864298,
    "lon": -102.302496,
    "address": "East Interstate 20, Odessa, TX",
    "city": "",
    "state": "",
    "zip": "",
    "hgv": true,
    "truck_stop": true
  },
  {
    "id": 473000129,
    "name": "Flying J",
    "brand": "Pilot Flying J",
    "lat": 34.81722,
    "lon": -118.886732,
    "address": "Frazier Mountain Park Road, 92343",
    "city": "",
    "state": "",
    "zip": "",
    "hgv": false,
    "truck_stop": true
  },
  {
    "id": 520499022,
    "name": "Flying J",
    "brand": "Pilot Flying J",
    "lat": 39.614646,
    "lon": -119.216699,
    "address": "Truck Inn Way, Fernley, NV, 89408",
    "city": "",
    "state": "",
    "zip": "",
    "hgv": false,
    "truck_stop": true
  },
  {
    "id": 520499023,
    "name": "Flying J",
    "brand": "Pilot Flying J",
    "lat": 39.615083,
    "lon": -119.215928,
    "address": "Dwight D. Eisenhower Highway, Fernley, NV, 89408",
    "city": "",
    "state": "",
    "zip": "",
    "hgv": true,
    "truck_stop": true
  },
  {
    "id": 717770300,
    "name": "Flying J",
    "brand": "Pilot Flying J",
    "lat": 40.234639,
    "lon": -77.123005,
    "address": "Harrisburg Pike, Middlesex Township, PA, 17072",
    "city": "",
    "state": "",
    "zip": "",
    "hgv": false,
    "truck_stop": true
  },
  {
    "id": 837508329,
    "name": "Flying J",
    "brand": "Pilot Flying J",
    "lat": 28.452259,
    "lon": -99.238217,
    "address": "North Interstate 35, 78014",
    "city": "",
    "state": "",
    "zip": "",
    "hgv": false,
    "truck_stop": true
  },
  {
    "id": 837508331,
    "name": "Flying J",
    "brand": "Pilot Flying J",
    "lat": 28.453106,
    "lon": -99.238315,
    "address": "North Interstate 35, 78014",
    "city": "",
    "state": "",
    "zip": "",
    "hgv": true,
    "truck_stop": true
  },
  {
    "id": 888021667,
    "name": "Flying J",
    "brand": "Pilot Flying J",
    "lat": 40.235182,
    "lon": -77.122064,
    "address": "Flying J Drive, Middlesex Township, PA, 17072",
    "city": "",
    "state": "",
    "zip": "",
    "hgv": true,
    "truck_stop": true
  },
  {
    "id": 888809753,
    "name": "Flying J",
    "brand": "Pilot Flying J",
    "lat": 35.078938,
    "lon": -106.746524,
    "address": "Avalon Road Northwest, Albuquerque, NM, 87121",
    "city": "",
    "state": "",
    "zip": "",
    "hgv": true,
    "truck_stop": true
  },
  {
    "id": 894670167,
    "name": "Flying J",
    "brand": "Pilot Flying J",
    "lat": 46.008537,
    "lon": -112.609963,
    "address": "East Browns Gulch Road, Butte, MT",
    "city": "",
    "state": "",
    "zip": "",
    "hgv": true,
    "truck_stop": true
  },
  {
    "id": 923620017,
    "name": "Flying J",
    "brand": "Pilot Flying J",
    "lat": 45.774341,
    "lon": -111.199651,
    "address": "Business Hub Drive, 59714",
    "city": "",
    "state": "",
    "zip": "",
    "hgv": false,
    "truck_stop": true
  },
  {
    "id": 974517700,
    "name": "Flying J",
    "brand": "Pilot Flying J",
    "lat": 46.952173,
    "lon": -122.940682,
    "address": "2725 93rd Avenue Southwest, Tumwater, WA, 98512",
    "city": "",
    "state": "",
    "zip": "",
    "hgv": false,
    "truck_stop": true
  },
  {
    "id": 978157523,
    "name": "Flying J",
    "brand": "Pilot Flying J",
    "lat": 34.015739,
    "lon": -117.525616,
    "address": "Mission Boulevard, Jurupa Valley, CA",
    "city": "",
    "state": "",
    "zip": "",
    "hgv": true,
    "truck_stop": true
  },
  {
    "id": 978157524,
    "name": "Flying J",
    "brand": "Pilot Flying J",
    "lat": 34.015077,
    "lon": -117.525036,
    "address": "Riverside Drive, Jurupa Valley, CA",
    "city": "",
    "state": "",
    "zip": "",
    "hgv": false,
    "truck_stop": true
  },
  {
    "id": 1099977426,
    "name": "Flying J",
    "brand": "Pilot Flying J",
    "lat": 40.960626,
    "lon": -117.747697,
    "address": "West Winnemucca Boulevard, Winnemucca, NV, 89445",
    "city": "",
    "state": "",
    "zip": "",
    "hgv": true,
    "truck_stop": true
  },
  {
    "id": 1120241304,
    "name": "Flying J",
    "brand": "Pilot Flying J",
    "lat": 39.63834,
    "lon": -75.805964,
    "address": "221 Belle Hill Road, Elkton, MD, 21921",
    "city": "",
    "state": "",
    "zip": "",
    "hgv": false,
    "truck_stop": true
  },
  {
    "id": 1148694683,
    "name": "Flying J",
    "brand": "Pilot Flying J",
    "lat": 46.951425,
    "lon": -122.940865,
    "address": "Lathrop Industrial Drive Southwest, Tumwater, WA, 98512",
    "city": "",
    "state": "",
    "zip": "",
    "hgv": true,
    "truck_stop": true
  },
  {
    "id": 1284777366,
    "name": "Flying J",
    "brand": "Pilot Flying J",
    "lat": 31.853142,
    "lon": -103.067617,
    "address": "East State Highway 302, 79745",
    "city": "",
    "state": "",
    "zip": "",
    "hgv": false,
    "truck_stop": true
  },
  {
    "id": 1284777367,
    "name": "Flying J",
    "brand": "Pilot Flying J",
    "lat": 31.853868,
    "lon": -103.067723,
    "address": "County Road 313, 79745",
    "city": "",
    "state": "",
    "zip": "",
    "hgv": true,
    "truck_stop": true
  },
  {
    "id": 15004903,
    "name": "Flying J",
    "brand": "Pilot Flying J",
    "lat": 39.693161,
    "lon": -86.191396,
    "address": "USS Indianapolis Memorial Highway, Indianapolis, IN, 46217",
    "city": "",
    "state": "",
    "zip": "",
    "hgv": true,
    "truck_stop": true
  },
  {
    "id": 235554989,
    "name": "Flying J - Sayre",
    "brand": "Pilot Flying J",
    "lat": 35.265402,
    "lon": -99.641279,
    "address": "South 4th Street, Sayre, OK, 73662",
    "city": "",
    "state": "",
    "zip": "",
    "hgv": false,
    "truck_stop": true
  },
  {
    "id": 235554992,
    "name": "Flying J - Sayre",
    "brand": "Pilot Flying J",
    "lat": 35.265898,
    "lon": -99.640846,
    "address": "South 4th Street, Sayre, OK, 73662",
    "city": "",
    "state": "",
    "zip": "",
    "hgv": true,
    "truck_stop": true
  },
  {
    "id": 202953953,
    "name": "Flying J Conoco",
    "brand": "Pilot Flying J",
    "lat": 32.194688,
    "lon": -86.419639,
    "address": "Tyson Road, 36043",
    "city": "",
    "state": "",
    "zip": "",
    "hgv": false,
    "truck_stop": true
  },
  {
    "id": 1018155713,
    "name": "Flying J Diesel",
    "brand": "Pilot Flying J",
    "lat": 45.234056,
    "lon": -122.809476,
    "address": "Ehlen Road Northeast, 97020",
    "city": "",
    "state": "",
    "zip": "",
    "hgv": true,
    "truck_stop": true
  },
  {
    "id": 2405613424,
    "name": "Flying J Fuel Center",
    "brand": "Pilot Flying J",
    "lat": 38.364734,
    "lon": -82.697318,
    "address": "KY 180",
    "city": "",
    "state": "",
    "zip": "",
    "hgv": false,
    "truck_stop": true
  },
  {
    "id": 2405613425,
    "name": "Flying J Fuel Center",
    "brand": "Pilot Flying J",
    "lat": 38.364832,
    "lon": -82.696623,
    "address": "KY 180",
    "city": "",
    "state": "",
    "zip": "",
    "hgv": true,
    "truck_stop": true
  },
  {
    "id": 1018155712,
    "name": "Flying J Gasoline",
    "brand": "Pilot Flying J",
    "lat": 45.23396,
    "lon": -122.810349,
    "address": "Ehlen Road Northeast, 97020",
    "city": "",
    "state": "",
    "zip": "",
    "hgv": false,
    "truck_stop": true
  },
  {
    "id": 1580677199,
    "name": "Flying J Travel Plaza",
    "brand": "Pilot Flying J",
    "lat": 31.400746,
    "lon": -103.486345,
    "address": "South Frontage Road, Pecos, TX, 79722",
    "city": "",
    "state": "",
    "zip": "",
    "hgv": false,
    "truck_stop": true
  },
  {
    "id": 230486477,
    "name": "Flying J Truck Lanes",
    "brand": "Pilot Flying J",
    "lat": 35.219957,
    "lon": -114.006916,
    "address": "East Andy Devine Avenue, Kingman, AZ, 86401",
    "city": "",
    "state": "",
    "zip": "",
    "hgv": true,
    "truck_stop": true
  },
  {
    "id": 119960983,
    "name": "Flying J Walton",
    "brand": "Pilot Flying J",
    "lat": 38.857956,
    "lon": -84.625313,
    "address": "Walton-Verona Road, Walton, KY, 41094",
    "city": "",
    "state": "",
    "zip": "",
    "hgv": false,
    "truck_stop": true
  },
  {
    "id": 119961008,
    "name": "Flying J Walton",
    "brand": "Pilot Flying J",
    "lat": 38.857286,
    "lon": -84.625708,
    "address": "Walton-Verona Road, Walton, KY, 41094",
    "city": "",
    "state": "",
    "zip": "",
    "hgv": false,
    "truck_stop": true
  },
  {
    "id": 358133748,
    "name": "Flying J's",
    "brand": "Pilot Flying J",
    "lat": 43.000777,
    "lon": -78.406933,
    "address": "Alleghany Road, Town of Pembroke, NY, 14013",
    "city": "",
    "state": "",
    "zip": "",
    "hgv": true,
    "truck_stop": true
  },
  {
    "id": 4913626236,
    "name": "Flying J's",
    "brand": "Pilot Flying J",
    "lat": 37.214509,
    "lon": -93.381311,
    "address": "Broadview Place, Springfield, MO",
    "city": "",
    "state": "",
    "zip": "",
    "hgv": true,
    "truck_stop": true
  },
  {
    "id": 4515968098,
    "name": "Fort Independence Travel Plaza",
    "brand": "",
    "lat": 36.836281,
    "lon": -118.229361,
    "address": "1035 South Highway 395",
    "city": "",
    "state": "",
    "zip": "93526",
    "hgv": false,
    "truck_stop": true
  },
  {
    "id": 11846686,
    "name": "Frog City Truck Stop and Casino",
    "brand": "",
    "lat": 30.250495,
    "lon": -92.267987,
    "address": "North Polk Street, Rayne, LA, 70578",
    "city": "",
    "state": "",
    "zip": "",
    "hgv": false,
    "truck_stop": true
  },
  {
    "id": 764620302,
    "name": "Fuel Stop",
    "brand": "Fuel Stop",
    "lat": 40.754053,
    "lon": -84.090041,
    "address": "North Sugar Street, Lima, OH, 45801",
    "city": "",
    "state": "",
    "zip": "",
    "hgv": true,
    "truck_stop": true
  },
  {
    "id": 1287247012,
    "name": "Gillis Truck Stop",
    "brand": "",
    "lat": 30.397427,
    "lon": -93.232016,
    "address": "Highway 171, 70611",
    "city": "",
    "state": "",
    "zip": "",
    "hgv": false,
    "truck_stop": true
  },
  {
    "id": 7935348432,
    "name": "Global",
    "brand": "Global",
    "lat": 42.558363,
    "lon": -71.298664,
    "address": "Treble Cove Road, Billerica, MA, 01862",
    "city": "",
    "state": "",
    "zip": "",
    "hgv": true,
    "truck_stop": true
  },
  {
    "id": 11198750499,
    "name": "Global",
    "brand": "Global",
    "lat": 43.024152,
    "lon": -71.367074,
    "address": "Hooksett Road, Auburn, NH, 03032",
    "city": "",
    "state": "",
    "zip": "",
    "hgv": true,
    "truck_stop": true
  },
  {
    "id": 441356229,
    "name": "Global Diesel",
    "brand": "Global",
    "lat": 42.493664,
    "lon": -71.725518,
    "address": "New Lancaster Road, Leominster, MA, 01453",
    "city": "",
    "state": "",
    "zip": "",
    "hgv": true,
    "truck_stop": true
  },
  {
    "id": 1126224696,
    "name": "Golden Acorn Travel Center",
    "brand": "",
    "lat": 32.701277,
    "lon": -116.354211,
    "address": "Golden Acorn Way, 91906",
    "city": "",
    "state": "",
    "zip": "",
    "hgv": false,
    "truck_stop": true
  },
  {
    "id": 492885959,
    "name": "Gray's Truck Stop",
    "brand": "",
    "lat": 40.389372,
    "lon": -94.87785,
    "address": "US 71;US 136, 64468",
    "city": "",
    "state": "",
    "zip": "",
    "hgv": false,
    "truck_stop": true
  },
  {
    "id": 492885960,
    "name": "Grey's Truck Stop",
    "brand": "",
    "lat": 40.389161,
    "lon": -94.877625,
    "address": "US 71;US 136, 64468",
    "city": "",
    "state": "",
    "zip": "",
    "hgv": true,
    "truck_stop": true
  },
  {
    "id": 212117133,
    "name": "Gulf",
    "brand": "Gulf",
    "lat": 42.193978,
    "lon": -72.934079,
    "address": "North Street, Blandford, MA, 01008",
    "city": "",
    "state": "",
    "zip": "",
    "hgv": true,
    "truck_stop": true
  },
  {
    "id": 212117282,
    "name": "Gulf",
    "brand": "Gulf",
    "lat": 42.195861,
    "lon": -72.932835,
    "address": "Massachusetts Turnpike, Blandford, MA, 01008",
    "city": "",
    "state": "",
    "zip": "",
    "hgv": true,
    "truck_stop": true
  },
  {
    "id": 212335619,
    "name": "Gulf",
    "brand": "Gulf",
    "lat": 42.156025,
    "lon": -71.964843,
    "address": "Massachusetts Turnpike, Charlton, MA, 01507",
    "city": "",
    "state": "",
    "zip": "",
    "hgv": true,
    "truck_stop": true
  },
  {
    "id": 212340501,
    "name": "Gulf",
    "brand": "Gulf",
    "lat": 42.140138,
    "lon": -72.024126,
    "address": "Massachusetts Turnpike, Charlton, MA, 01508",
    "city": "",
    "state": "",
    "zip": "",
    "hgv": true,
    "truck_stop": true
  },
  {
    "id": 213263509,
    "name": "Gulf",
    "brand": "Gulf",
    "lat": 42.311932,
    "lon": -71.429741,
    "address": "Massachusetts Turnpike, Framingham, MA, 01701",
    "city": "",
    "state": "",
    "zip": "",
    "hgv": true,
    "truck_stop": true
  },
  {
    "id": 217074742,
    "name": "Gulf",
    "brand": "Gulf",
    "lat": 42.244939,
    "lon": -71.592537,
    "address": "Rt 90 Wb Service Area, Westborough, MA, 01784",
    "city": "",
    "state": "",
    "zip": "",
    "hgv": true,
    "truck_stop": true
  },
  {
    "id": 12082250235,
    "name": "Hail Creek Travel Center",
    "brand": "",
    "lat": 36.424524,
    "lon": -105.572801,
    "address": "Paseo del Pueblo Norte, Taos, NM, 98529",
    "city": "",
    "state": "",
    "zip": "",
    "hgv": false,
    "truck_stop": true
  },
  {
    "id": 11392495563,
    "name": "Hall & Smith Energy",
    "brand": "Hall & Smith Energy",
    "lat": 45.623938,
    "lon": -70.2517,
    "address": "Main Street, Jackman, ME, 04945",
    "city": "",
    "state": "",
    "zip": "",
    "hgv": true,
    "truck_stop": true
  },
  {
    "id": 1130971051,
    "name": "Hard Times Truck Stop",
    "brand": "",
    "lat": 43.371818,
    "lon": -112.131206,
    "address": "North State Street, Shelley, ID, 83274",
    "city": "",
    "state": "",
    "zip": "",
    "hgv": false,
    "truck_stop": true
  },
  {
    "id": 13227935001,
    "name": "Hardy Enterprises Truck Stop",
    "brand": "",
    "lat": 40.842379,
    "lon": -115.751572,
    "address": "1790 Elko, NV. Idaho Street",
    "city": "",
    "state": "",
    "zip": "",
    "hgv": false,
    "truck_stop": true
  },
  {
    "id": 7703852185,
    "name": "Highway 97 Truck Plaza",
    "brand": "",
    "lat": 46.367955,
    "lon": -120.318873,
    "address": "Evergreen Highway, 98948",
    "city": "",
    "state": "",
    "zip": "",
    "hgv": false,
    "truck_stop": true
  },
  {
    "id": 2317284282,
    "name": "Hilltop Travel Center",
    "brand": "",
    "lat": 35.538918,
    "lon": -94.229318,
    "address": "Hilltop Travel Center Drive Entry, 72952",
    "city": "",
    "state": "",
    "zip": "",
    "hgv": false,
    "truck_stop": true
  },
  {
    "id": 264236973,
    "name": "Independent",
    "brand": "Independent",
    "lat": 42.208612,
    "lon": -89.107421,
    "address": "South Main Street, 61102",
    "city": "",
    "state": "",
    "zip": "",
    "hgv": true,
    "truck_stop": true
  },
  {
    "id": 1180554201,
    "name": "Inland",
    "brand": "Inland",
    "lat": 31.423773,
    "lon": -85.61679,
    "address": "South Union Avenue, Ozark, AL, 36360",
    "city": "",
    "state": "",
    "zip": "",
    "hgv": true,
    "truck_stop": true
  },
  {
    "id": 1353011318,
    "name": "Insight FS",
    "brand": "",
    "lat": 44.069244,
    "lon": -89.285952,
    "address": "East Division Street, Wautoma, WI, 54982",
    "city": "",
    "state": "",
    "zip": "",
    "hgv": true,
    "truck_stop": true
  },
  {
    "id": 827132372,
    "name": "InterState truck diesel",
    "brand": "InterState Oil",
    "lat": 38.381503,
    "lon": -121.364275,
    "address": "Elkmont Way, Elk Grove, CA, 94624",
    "city": "",
    "state": "",
    "zip": "",
    "hgv": true,
    "truck_stop": true
  },
  {
    "id": 11346151028,
    "name": "Irving",
    "brand": "Irving",
    "lat": 43.0999,
    "lon": -70.747615,
    "address": "CAT Scale, Kittery, ME, 03904",
    "city": "",
    "state": "",
    "zip": "",
    "hgv": true,
    "truck_stop": true
  },
  {
    "id": 11393159950,
    "name": "Irving",
    "brand": "Irving",
    "lat": 45.123577,
    "lon": -67.348593,
    "address": "Houlton Road, Baileyville, ME",
    "city": "",
    "state": "",
    "zip": "",
    "hgv": true,
    "truck_stop": true
  },
  {
    "id": 5771093,
    "name": "Joe's Travel Plaza",
    "brand": "",
    "lat": 37.53811,
    "lon": -121.26335,
    "address": "Westside Freeway, 95387",
    "city": "",
    "state": "",
    "zip": "",
    "hgv": false,
    "truck_stop": true
  },
  {
    "id": 1074347841,
    "name": "Joel's Travel Plaza",
    "brand": "",
    "lat": 37.820173,
    "lon": -121.291257,
    "address": "South Harlan Road, Lathrop, CA, 95330",
    "city": "",
    "state": "",
    "zip": "",
    "hgv": false,
    "truck_stop": true
  },
  {
    "id": 365756639,
    "name": "Jud's Travel Center",
    "brand": "Chevron",
    "lat": 29.602362,
    "lon": -97.951225,
    "address": "2999 North Highway 123 Bypass, Seguin, TX, 78155",
    "city": "",
    "state": "",
    "zip": "",
    "hgv": false,
    "truck_stop": true
  },
  {
    "id": 160913787,
    "name": "Keyser's Ridge Auto-Truck Stop",
    "brand": "",
    "lat": 39.694137,
    "lon": -79.248783,
    "address": "National Pike",
    "city": "",
    "state": "",
    "zip": "",
    "hgv": false,
    "truck_stop": true
  },
  {
    "id": 1002861972,
    "name": "Kum & Go",
    "brand": "Kum & Go",
    "lat": 41.647691,
    "lon": -91.115055,
    "address": "306th Street",
    "city": "",
    "state": "",
    "zip": "",
    "hgv": true,
    "truck_stop": true
  },
  {
    "id": 1224805932,
    "name": "Kum & Go",
    "brand": "Kum & Go",
    "lat": 41.690997,
    "lon": -92.067214,
    "address": "M Avenue, Marengo, IA, 52301",
    "city": "",
    "state": "",
    "zip": "",
    "hgv": true,
    "truck_stop": true
  },
  {
    "id": 1225291541,
    "name": "Kum & Go",
    "brand": "Kum & Go",
    "lat": 41.177316,
    "lon": -93.781332,
    "address": "1453 County Road G76, New Virginia, IA, 50210",
    "city": "",
    "state": "",
    "zip": "",
    "hgv": true,
    "truck_stop": true
  },
  {
    "id": 8573071826,
    "name": "Kum & Go Truck Stop",
    "brand": "Kum & Go",
    "lat": 37.385495,
    "lon": -93.157254,
    "address": "West Old Mill Road, Fair Grove, MO, 65648",
    "city": "",
    "state": "",
    "zip": "",
    "hgv": false,
    "truck_stop": true
  },
  {
    "id": 232722887,
    "name": "Kwik Fill",
    "brand": "Kwik Fill",
    "lat": 42.894931,
    "lon": -78.641513,
    "address": "5843 Broadway Street",
    "city": "",
    "state": "",
    "zip": "",
    "hgv": true,
    "truck_stop": true
  },
  {
    "id": 830056015,
    "name": "Kwik Fill",
    "brand": "Kwik Fill",
    "lat": 42.994874,
    "lon": -78.183479,
    "address": "Ellicott Street, City of Batavia, NY, 14020",
    "city": "",
    "state": "",
    "zip": "",
    "hgv": true,
    "truck_stop": true
  },